시설명,시도명,시군구명,소재지도로명주소,소재지지번주소,위도,경도,관리기관명,관리기관전화번호,데이터기준일자,제공기관코드,제공기관명
광교호수초,경기도,수원시,경기도 수원시 영통구 광교호수공원로 205,경기도 수원시 영통구 원천동 589-1,37.2796927,127.058864,경기도 수원시청 교통정책과,031-5191-2505,2026-04-10,3740000,경기도 수원시
능실초,경기도,수원시,경기도 수원시 권선구 호매실로165번길 28,경기도 수원시 권선구 호매실동 1391,37.25972147,126.9560546,경기도 수원시청 교통정책과,031-5191-2505,2026-04-10,3740000,경기도 수원시
산남초,경기도,수원시,경기도 수원시 영통구 산남로 86,경기도 수원시 영통구 매탄동 111-164,37.27064523,127.0501161,경기도 수원시청 교통정책과,031-5191-2505,2026-04-10,3740000,경기도 수원시
신영초,경기도,수원시,경기도 수원시 영통구 영통로 266,경기도 수원시 영통구 영통동 972-3,37.25015801,127.0602538,경기도 수원시청 교통정책과,031-5191-2505,2026-04-10,3740000,경기도 수원시
우만초,경기도,수원시,경기도 수원시 팔달구 창룡대로210번길 20,경기도 수원시 팔달구 우만동 300-3,37.29144659,127.0324161,경기도 수원시청 교통정책과,031-5191-2505,2026-04-10,3740000,경기도 수원시
화양초,경기도,수원시,경기도 수원시 팔달구 덕영대로735번길 65,경기도 수원시 팔달구 화서동 274,37.28354656,126.9950478,경기도 수원시청 교통정책과,031-5191-2505,2026-04-10,3740000,경기도 수원시
화홍초,경기도,수원시,경기도 수원시 팔달구 수성로258번길 70,경기도 수원시 팔달구 화서동 7-1,37.28724566,127.0028824,경기도 수원시청 교통정책과,031-5191-2505,2026-04-10,3740000,경기도 수원시
곡선초,경기도,수원시,경기도 수원시 권선구 덕영대로1217번길 36,경기도 수원시 권선구 권선동 1199,37.25076143,127.0253992,경기도 수원시청 교통정책과,031-5191-2505,2026-04-10,3740000,경기도 수원시
정자초,경기도,수원시,경기도 수원시 장안구 장안로 191,경기도 수원시 장안구 정자동 873-8,37.2995599,126.9951959,경기도 수원시청 교통정책과,031-5191-2505,2026-04-10,3740000,경기도 수원시
지동초,경기도,수원시,경기도 수원시 팔달구 중부대로 67,경기도 수원시 팔달구 지동 119-1,37.27715909,127.024503,경기도 수원시청 교통정책과,031-5191-2505,2026-04-10,3740000,경기도 수원시
율전초,경기도,수원시,경기도 수원시 장안구 율전로 113,경기도 수원시 장안구 율전동 308-6,37.29951575,126.9686866,경기도 수원시청 교통정책과,031-5191-2505,2026-04-10,3740000,경기도 수원시
입북초,경기도,수원시,경기도 수원시 권선구 율전로 10,경기도 수원시 권선구 입북동 230-3,37.29451623,126.9601632,경기도 수원시청 교통정책과,031-5191-2505,2026-04-10,3740000,경기도 수원시
세곡초,경기도,수원시,경기도 수원시 권선구 세권로 207번길 32,경기도 수원시 권선구 권선동 1044,37.25629813,127.0283401,경기도 수원시청 교통정책과,031-5191-2505,2026-04-10,3740000,경기도 수원시
황곡초,경기도,수원시,경기도 수원시 영통구 영통로 518,경기도 수원시 영통구 영통동 948-3,37.2655424,127.0782969,경기도 수원시청 교통정책과,031-5191-2505,2026-04-10,3740000,경기도 수원시
송원초,경기도,수원시,경기도 수원시 장안구 수일로 185,경기도 수원시 장안구 조원동 872,37.30849343,127.010124,경기도 수원시청 교통정책과,031-5191-2505,2026-04-10,3740000,경기도 수원시
수일초,경기도,수원시,경기도 수원시 장안구 수일로 85,경기도 수원시 장안구 파장동 411,37.31086106,127.0008865,경기도 수원시청 교통정책과,031-5191-2505,2026-04-10,3740000,경기도 수원시
조원초,경기도,수원시,경기도 수원시 장안구 금당로 53,경기도 수원시 장안구 조원동 390,37.30321326,127.0172011,경기도 수원시청 교통정책과,031-5191-2505,2026-04-10,3740000,경기도 수원시
다솔초,경기도,수원시,경기도 수원시 장안구 이목로 24-35,경기도 수원시 장안구 정자동 946,37.30869676,126.987669,경기도 수원시청 교통정책과,031-5191-2505,2026-04-10,3740000,경기도 수원시
한일초,경기도,수원시,경기도 수원시 장안구 수일로 150,경기도 수원시 장안구 조원동 882,37.30709739,127.0058122,경기도 수원시청 교통정책과,031-5191-2505,2026-04-10,3740000,경기도 수원시
대평초,경기도,수원시,경기도 수원시 장안구 대평로 111,경기도 수원시 장안구 정자동 871-2,37.29774522,126.9907648,경기도 수원시청 교통정책과,031-5191-2505,2026-04-10,3740000,경기도 수원시
원일초,경기도,수원시,경기도 수원시 영통구 중부대로448번길 84,경기도 수원시 영통구 원천동 549-1,37.26779736,127.0602571,경기도 수원시청 교통정책과,031-5191-2505,2026-04-10,3740000,경기도 수원시
안룡초,경기도,수원시,경기도 수원시 권선구 곡반정로33번길 21,경기도 수원시 권선구 곡반정동 606,37.23332545,127.0247048,경기도 수원시청 교통정책과,031-5191-2505,2026-04-10,3740000,경기도 수원시
명당초,경기도,수원시,경기도 수원시 권선구 세권로 319,경기도 수원시 권선구 권선동 1301,37.25225192,127.0393016,경기도 수원시청 교통정책과,031-5191-2505,2026-04-10,3740000,경기도 수원시
가온초,경기도,수원시,경기도 수원시 권선구 금곡로73번길 36,경기도 수원시 권선구 금곡동 491,37.27549141,126.9364215,경기도 수원시청 교통정책과,031-5191-2505,2026-04-10,3740000,경기도 수원시
구운초,경기도,수원시,경기도 수원시 권선구 여기산로 29,경기도 수원시 권선구 구운동 465,37.28066615,126.9779455,경기도 수원시청 교통정책과,031-5191-2505,2026-04-10,3740000,경기도 수원시
신성초,경기도,수원시,경기도 수원시 영통구 청명북로 42,경기도 수원시 영통구 영통동 1049-2,37.25547143,127.0816557,경기도 수원시청 교통정책과,031-5191-2505,2026-04-10,3740000,경기도 수원시
잠원초,경기도,수원시,경기도 수원시 영통구 태장로54번길 11,경기도 수원시 영통구 망포동 687,37.23872914,127.0525213,경기도 수원시청 교통정책과,031-5191-2505,2026-04-10,3740000,경기도 수원시
영일초,경기도,수원시,경기도 수원시 영통구 덕영대로1673번길 17,경기도 수원시 영통구 영통동 988-4,37.24845193,127.0735665,경기도 수원시청 교통정책과,031-5191-2505,2026-04-10,3740000,경기도 수원시
영통초,경기도,수원시,경기도 수원시 영통구 영통로 328,경기도 수원시 영통구 영통동 963-3,37.25451415,127.0644383,경기도 수원시청 교통정책과,031-5191-2505,2026-04-10,3740000,경기도 수원시
고현초,경기도,수원시,경기도 수원시 권선구 고현로 12,경기도 수원시 권선구 고색동 280,37.24914159,126.9881439,경기도 수원시청 교통정책과,031-5191-2505,2026-04-10,3740000,경기도 수원시
오목초,경기도,수원시,경기도 수원시 권선구 오목천로 24,경기도 수원시 권선구 오목천동 422-1,37.23969613,126.9656145,경기도 수원시청 교통정책과,031-5191-2505,2026-04-10,3740000,경기도 수원시
탑동초,경기도,수원시,경기도 수원시 권선구 탑동로 55,경기도 수원시 권선구 탑동 755,37.27354886,126.9728696,경기도 수원시청 교통정책과,031-5191-2505,2026-04-10,3740000,경기도 수원시
수원초,경기도,수원시,경기도 수원시 팔달구 팔달로110번길 26,경기도 수원시 팔달구 고등동 19,37.27783129,127.0043475,경기도 수원시청 교통정책과,031-5191-2505,2026-04-10,3740000,경기도 수원시
고색초,경기도,수원시,경기도 수원시 권선구 매송고색로 681,경기도 수원시 권선구 고색동 887-59,37.25156123,126.9783835,경기도 수원시청 교통정책과,031-5191-2505,2026-04-10,3740000,경기도 수원시
일월초,경기도,수원시,경기도 수원시 권선구 일월천로16번길 27,경기도 수원시 권선구 구운동 891,37.28421904,126.9743928,경기도 수원시청 교통정책과,031-5191-2505,2026-04-10,3740000,경기도 수원시
금곡초,경기도,수원시,경기도 수원시 권선구 서수원로617번길 30,경기도 수원시 권선구 금곡동 1004,37.27970688,126.9526515,경기도 수원시청 교통정책과,031-5191-2505,2026-04-10,3740000,경기도 수원시
매산초,경기도,수원시,경기도 수원시 팔달구 향교로 93,경기도 수원시 팔달구 매산로3가 13,37.27214613,127.0107555,경기도 수원시청 교통정책과,031-5191-2505,2026-04-10,3740000,경기도 수원시
천천초,경기도,수원시,경기도 수원시 장안구 정자로42번길 17,경기도 수원시 장안구 천천동 512,37.30058446,126.982582,경기도 수원시청 교통정책과,031-5191-2505,2026-04-10,3740000,경기도 수원시
율현초,경기도,수원시,경기도 수원시 팔달구 정자천로32번길 55,경기도 수원시 팔달구 화서동 710,37.28722869,126.9828949,경기도 수원시청 교통정책과,031-5191-2505,2026-04-10,3740000,경기도 수원시
효성초,경기도,수원시,경기도 수원시 팔달구 월드컵로 256번길,경기도 수원시 팔달구 우만동 14-1,37.28347335,127.0393624,경기도 수원시청 교통정책과,031-5191-2505,2026-04-10,3740000,경기도 수원시
매현초,경기도,수원시,경기도 수원시 영통구 동탄원천로881번길 77,경기도 수원시 영통구 매탄동 1278,37.25654437,127.0420138,경기도 수원시청 교통정책과,031-5191-2505,2026-04-10,3740000,경기도 수원시
망포초,경기도,수원시,경기도 수원시 영통구 동탄지성로 550-10,경기도 수원시 영통구 망포동 750,37.24065005,127.0470226,경기도 수원시청 교통정책과,031-5191-2505,2026-04-10,3740000,경기도 수원시
세류초,경기도,수원시,경기도 수원시 권선구 세류로 78,경기도 수원시 권선구 세류동 69-2,37.26636058,127.010354,경기도 수원시청 교통정책과,031-5191-2505,2026-04-10,3740000,경기도 수원시
흥덕3교,경기도,수원시,,경기도 수원시 영통구 하동 1047-1,37.28000819,127.0702489,경기도 수원시청 교통정책과,031-5191-2505,2026-04-10,3740000,경기도 수원시
칠보초,경기도,수원시,경기도 수원시 권선구 금호로37번길 15,경기도 수원시 권선구 금곡동 245-2,37.26986181,126.9553744,경기도 수원시청 교통정책과,031-5191-2505,2026-04-10,3740000,경기도 수원시
당수초,경기도,수원시,경기도 수원시 권선구 당진로 6,경기도 수원시 권선구 당수동 244-3,37.28966434,126.9415403,경기도 수원시청 교통정책과,031-5191-2505,2026-04-10,3740000,경기도 수원시
영동초,경기도,수원시,경기도 수원시 영통구 봉영로1517번길 40,경기도 수원시 영통구 영통동 967-4,37.24989846,127.0660942,경기도 수원시청 교통정책과,031-5191-2505,2026-04-10,3740000,경기도 수원시
원천초,경기도,수원시,경기도 수원시 영통구 매영로 103,경기도 수원시 영통구 매탄동 1212,37.26847708,127.0537706,경기도 수원시청 교통정책과,031-5191-2505,2026-04-10,3740000,경기도 수원시
산의초,경기도,수원시,경기도 수원시 영통구 센트럴타운로22번길 25,경기도 수원시 영통구 이의동 1327,37.29037137,127.057187,경기도 수원시청 교통정책과,031-5191-2505,2026-04-10,3740000,경기도 수원시
곡반초,경기도,수원시,경기도 수원시 권선구 덕영대로 1323번길 26-14,경기도 수원시 권선구 권선동 1322,37.24687115,127.0362137,경기도 수원시청 교통정책과,031-5191-2505,2026-04-10,3740000,경기도 수원시
명인초,경기도,수원시,경기도 수원시 장안구 대평로52번길 21,경기도 수원시 장안구 정자동 884-7,37.29423188,126.9948897,경기도 수원시청 교통정책과,031-5191-2505,2026-04-10,3740000,경기도 수원시
숙지초,경기도,수원시,경기도 수원시 장안구 덕영대로735번길 23-1,경기도 수원시 장안구 화서동 651,37.28323146,126.9917106,경기도 수원시청 교통정책과,031-5191-2505,2026-04-10,3740000,경기도 수원시
송림초,경기도,수원시,경기도 수원시 장안구 대평로51번길 65,경기도 수원시 장안구 정자동 889-1,37.2912808,126.9917372,경기도 수원시청 교통정책과,031-5191-2505,2026-04-10,3740000,경기도 수원시
상률초,경기도,수원시,경기도 수원시 장안구 덕영대로417번길 98,경기도 수원시 장안구 율전동 142-22,37.30476787,126.9695872,경기도 수원시청 교통정책과,031-5191-2505,2026-04-10,3740000,경기도 수원시
천일초,경기도,수원시,경기도 수원시 장안구 정자로19번길 13,경기도 수원시 장안구 천천동 570,37.30095712,126.9781743,경기도 수원시청 교통정책과,031-5191-2505,2026-04-10,3740000,경기도 수원시
권선초,경기도,수원시,경기도 수원시 권선구 세지로126번길 27,경기도 수원시 권선구 권선동 948,37.26329738,127.0217658,경기도 수원시청 교통정책과,031-5191-2505,2026-04-10,3740000,경기도 수원시
매원초,경기도,수원시,경기도 수원시 영통구 광교호수공원로 100,경기도 수원시 영통구 원천동 595,37.27438801,127.0637213,경기도 수원시청 교통정책과,031-5191-2505,2026-04-10,3740000,경기도 수원시
영덕초,경기도,수원시,경기도 수원시 영통구 영통로 438,경기도 수원시 영통구 영통동 957-2,37.25905057,127.0739487,경기도 수원시청 교통정책과,031-5191-2505,2026-04-10,3740000,경기도 수원시
광교초,경기도,수원시,경기도 수원시 영통구 대학로 91,경기도 수원시 영통구 이의동 1208,37.3038514,127.0461691,경기도 수원시청 교통정책과,031-5191-2505,2026-04-10,3740000,경기도 수원시
한누리유치원,경기도,수원시,경기도 수원시 영통구 창룡대로256번길 14,경기도 수원시 영통구 이의동 1284-1,37.2947692,127.0374446,경기도 수원시청 교통정책과,031-5191-2505,2026-04-10,3740000,경기도 수원시
구운초,경기도,수원시,경기도 수원시 권선구 여기산로 29,경기도 수원시 권선구 구운동 465,37.2808400,126.9779104,경기도 수원시청 교통정책과,031-5191-2505,2026-04-10,3740000,경기도 수원시
남수원초,경기도,수원시,경기도 수원시 권선구 경수대로235번길 24,경기도 수원시 권선구 세류동 1130,37.2498806,127.0164989,경기도 수원시청 교통정책과,031-5191-2505,2026-04-10,3740000,경기도 수원시
세류초,경기도,수원시,경기도 수원시 권선구 세류로 78,경기도 수원시 권선구 세류동 63,37.2665543,127.0101912,경기도 수원시청 교통정책과,031-5191-2505,2026-04-10,3740000,경기도 수원시
상촌초,경기도,수원시,경기도 수원시 권선구 금곡로31번길 92,경기도 수원시 권선구 금곡동 699,37.2732530,126.9353281,경기도 수원시청 교통정책과,031-5191-2505,2026-04-10,3740000,경기도 수원시
가온초,경기도,수원시,경기도 수원시 권선구 금곡로73번길 36,경기도 수원시 권선구 금곡동 1079,37.2755079,126.9366199,경기도 수원시청 교통정책과,031-5191-2505,2026-04-10,3740000,경기도 수원시
당수초,경기도,수원시,경기도 수원시 권선구 당진로 6,경기도 수원시 권선구 당수동 244-3,37.2896886,126.9416559,경기도 수원시청 교통정책과,031-5191-2505,2026-04-10,3740000,경기도 수원시
정천초,경기도,수원시,경기도 수원시 장안구 화산로 83,경기도 수원시 장안구 천천동 335,37.2912556,126.9826898,경기도 수원시청 교통정책과,031-5191-2505,2026-04-10,3740000,경기도 수원시
천일초,경기도,수원시,경기도 수원시 장안구 정자로19번길 13,경기도 수원시 장안구 천천동 570,37.3009698,126.9781792,경기도 수원시청 교통정책과,031-5191-2505,2026-04-10,3740000,경기도 수원시
효정초,경기도,수원시,경기도 수원시 권선구 동수원로285번길 5,경기도 수원시 권선구 권선동 1233,37.2551512,127.0348711,경기도 수원시청 교통정책과,031-5191-2505,2026-04-10,3740000,경기도 수원시
선행초,경기도,수원시,경기도 수원시 권선구 세권로196번길 21,경기도 수원시 영통구 권선동 1331,37.2543848,127.0259805,경기도 수원시청 교통정책과,031-5191-2505,2026-04-10,3740000,경기도 수원시
태장초,경기도,수원시,경기도 수원시 영통구 태장로71번길 30,경기도 수원시 영통구 망포동 371,37.2408720,127.0546251,경기도 수원시청 교통정책과,031-5191-2505,2026-04-10,3740000,경기도 수원시
영동초,경기도,수원시,경기도 수원시 영통구 봉영로1517번길 40,경기도 수원시 영통구 영통동 967-4,37.2499180,127.0661093,경기도 수원시청 교통정책과,031-5191-2505,2026-04-10,3740000,경기도 수원시
대선초,경기도,수원시,경기도 수원시 영통구 봉영로 1432-19,경기도 수원시 영통구 망포동 710,37.2419881,127.0649928,경기도 수원시청 교통정책과,031-5191-2505,2026-04-10,3740000,경기도 수원시
잠원초,경기도,수원시,경기도 수원시 영통구 태장로54번길 11,경기도 수원시 영통구 망포동 687,37.2388809,127.0524466,경기도 수원시청 교통정책과,031-5191-2505,2026-04-10,3740000,경기도 수원시
영통초,경기도,수원시,경기도 수원시 영통구 영통로 328,경기도 수원시 영통구 영통동 963-3,37.2545142,127.0644383,경기도 수원시청 교통정책과,031-5191-2505,2026-04-10,3740000,경기도 수원시
송죽초,경기도,수원시,경기도 수원시 장안구 송원로41번길 34,경기도 수원시 장안구 송죽동 502,37.3007513,127.0059841,경기도 수원시청 교통정책과,031-5191-2505,2026-04-10,3740000,경기도 수원시
상촌초,경기도,수원시,경기도 수원시 권선구 금곡로31번길 92,경기도 수원시 권선구 금곡동 699,37.27320642,126.9353319,경기도 수원시청 교통정책과,031-5191-2505,2026-04-10,3740000,경기도 수원시
정천초,경기도,수원시,경기도 수원시 장안구 화산로 83,경기도 수원시 장안구 천천동 335,37.2912382,126.9827548,경기도 수원시청 교통정책과,031-5191-2505,2026-04-10,3740000,경기도 수원시
효정초,경기도,수원시,경기도 수원시 권선구 동수원로285번길 5,경기도 수원시 권선구 권선동 1233,37.25513574,127.0349022,경기도 수원시청 교통정책과,031-5191-2505,2026-04-10,3740000,경기도 수원시
선행초,경기도,수원시,경기도 수원시 권선구 세권로196번길 21,경기도 수원시 권선구 권선동 1331,37.25438485,127.0259805,경기도 수원시청 교통정책과,031-5191-2505,2026-04-10,3740000,경기도 수원시
태장초,경기도,수원시,경기도 수원시 영통구 태장로71번길 30,경기도 수원시 영통구 망포동 371,37.24087205,127.0546251,경기도 수원시청 교통정책과,031-5191-2505,2026-04-10,3740000,경기도 수원시
대선초,경기도,수원시,경기도 수원시 영통구 봉영로1432-19,경기도 수원시 영통구 망포동 710,37.24194618,127.0646545,경기도 수원시청 교통정책과,031-5191-2505,2026-04-10,3740000,경기도 수원시
송죽초,경기도,수원시,경기도 수원시 장안구 송원로41번길 34,경기도 수원시 장안구 송죽동 502,37.30076246,127.0060008,경기도 수원시청 교통정책과,031-5191-2505,2026-04-10,3740000,경기도 수원시
청명초,경기도,수원시,경기도 수원시 영통구 봉영로1744번길 41,경기도 수원시 영통구 영통동 1053-6,37.26563109,127.0851747,경기도 수원시청 교통정책과,031-5191-2505,2026-04-10,3740000,경기도 수원시
금호초,경기도,수원시,경기도 수원시 권선구 칠보로 142,경기도 수원시 권선구 호매실동 1364,37.26487765,126.9536054,경기도 수원시청 교통정책과,031-5191-2505,2026-04-10,3740000,경기도 수원시
약수초등학교,전라남도,장성군,,전라남도 장성군 북하면 약수리 411-1,35.4075447,126.8805705,전라남도 장성군청 건설과,061-390-7449,2026-02-11,4980000,전라남도 장성군
북이초등학교,전라남도,장성군,,전라남도 장성군 북이면 신평리 16-5,35.43197832,126.804526,전라남도 장성군청 건설과,061-390-7449,2026-02-11,4980000,전라남도 장성군
북일초등학교,전라남도,장성군,,전라남도 장성군 북일면 오산리 656-16,35.38389032,126.7951902,전라남도 장성군청 건설과,061-390-7449,2026-02-11,4980000,전라남도 장성군
사창초등학교,전라남도,장성군,,전라남도 장성군 삼계면 사창리 244-1,35.2599109,126.6667825,전라남도 장성군청 건설과,061-390-7449,2026-02-11,4980000,전라남도 장성군
중앙초등학교,전라남도,장성군,,전라남도 장성군 장성읍 영천리 864-1,35.299961,126.7865862,전라남도 장성군청 건설과,061-390-7449,2026-02-11,4980000,전라남도 장성군
매산초,경기도,수원시,경기도 수원시 팔달구 향교로 93,경기도 수원시 팔달구 매산로3가 13,37.2721639,127.0107891,경기도 수원시청 교통정책과,031-5191-2505,2026-04-10,3740000,경기도 수원시
영화초,경기도,수원시,경기도 수원시 장안구 경수대로 838,경기도 수원시 장안구 조원동 556,37.2969750,127.0165000,경기도 수원시청 교통정책과,031-5191-2505,2026-04-10,3740000,경기도 수원시
매여울초,경기도,수원시,경기도 수원시 팔달구 권광로260번길 20,경기도 수원시 팔달구 인계동 385,37.2705652,127.0367983,경기도 수원시청 교통정책과,031-5191-2505,2026-04-10,3740000,경기도 수원시
효성초,경기도,수원시,경기도 수원시 팔달구 월드컵로 256,경기도 수원시 팔달구 우만동 14-1,37.2834866,127.0393929,경기도 수원시청 교통정책과,031-5191-2505,2026-04-10,3740000,경기도 수원시
곡란초등학교,경기도,군포시,경기도 군포시 고산로677번길 24-42,경기도 군포시 산본동 1058,37.3742439131,126.9338505536,경기도 군포시청,031-390-0295,2026-03-18,4020000,경기도 군포시
양정초등학교,경기도,군포시,경기도 군포시 오금로 131,경기도 군포시 금정동 850-1,37.3593062733,126.9406944877,경기도 군포시청,031-390-0295,2026-03-18,4020000,경기도 군포시
금정초등학교,경기도,군포시,경기도 군포시 금정로 40,경기도 군포시 금정동 703,37.36646403,126.941225,경기도 군포시청,031-390-0295,2026-03-18,4020000,경기도 군포시
신기초등학교,경기도,군포시,경기도 군포시 삼성로28번길 3,경기도 군포시 부곡동 1208,37.33864487,126.9327812,경기도 군포시청,031-390-0295,2026-03-18,4020000,경기도 군포시
오금초등학교,경기도,군포시,경기도 군포시 번영로 366,경기도 군포시 산본동 1156-22,37.34799594,126.9259853,경기도 군포시청,031-390-0295,2026-03-18,4020000,경기도 군포시
관모초등학교,경기도,군포시,경기도 군포시 곡란로8번길 35-22,경기도 군포시 산본동 1054,37.37620221,126.938033,경기도 군포시청,031-390-0295,2026-03-18,4020000,경기도 군포시
당정초등학교,경기도,군포시,경기도 군포시 고산로151번길 26-24,경기도 군포시 당정동 972-1,37.34657104,126.9547603,경기도 군포시청,031-390-0295,2026-03-18,4020000,경기도 군포시
부곡중앙초등학교,경기도,군포시,경기도 군포시 송부로273번길 7,경기도 군포시 부곡동 1113,37.32314464,126.9411386,경기도 군포시청,031-390-0295,2026-03-18,4020000,경기도 군포시
송안초등학교,경기도,군포시,경기도 군포시 송부로73번길 7,경기도 군포시 도마교동 458-2,37.31798939,126.9211924,경기도 군포시청,031-390-0295,2026-03-18,4020000,경기도 군포시
대야초등하교,경기도,군포시,경기도 군포시 대야2로 148,경기도 군포시 대야미동 220-4,37.32937847,126.9152247,경기도 군포시청,031-390-0295,2026-03-18,4020000,경기도 군포시
둔대초등학교,경기도,군포시,경기도 군포시 호수로 305-14,경기도 군포시 둔대동 219,37.32663436,126.9109116,경기도 군포시청,031-390-0295,2026-03-18,4020000,경기도 군포시
도장초등학교,경기도,군포시,경기도 군포시 번영로 371,경기도 군포시 산본동 1155-5,37.34864542,126.9236158,경기도 군포시청,031-390-0295,2026-03-18,4020000,경기도 군포시
당동초등학교,경기도,군포시,경기도 군포시 용호1로 34,경기도 군포시 당동 967,37.3459149,126.9394990014,경기도 군포시청,031-390-0295,2026-03-18,4020000,경기도 군포시
옥천초등학교,경기도,군포시,경기도 군포시 용호2로54번길 12,경기도 군포시 당동 884,37.34387477,126.9452915,경기도 군포시청,031-390-0295,2026-03-18,4020000,경기도 군포시
용호초등학교,경기도,군포시,경기도 군포시 용호2로 12,경기도 군포시 당동 876,37.3422666,126.9407788,경기도 군포시청,031-390-0295,2026-03-18,4020000,경기도 군포시
화산초등학교,경기도,군포시,경기도 군포시 오금로 48,경기도 군포시 금정동 871-5,37.3532606563,126.9345194,경기도 군포시청,031-390-0295,2026-03-18,4020000,경기도 군포시
흥진초등학교,경기도,군포시,경기도 군포시 오금로 15-40,경기도 군포시 금정동 875-5,37.35386649,126.9281597,경기도 군포시청,031-390-0295,2026-03-18,4020000,경기도 군포시
신흥초등학교,경기도,군포시,경기도 군포시 고산로 470,경기도 군포시 산본동 1145-12,37.35650213,126.9266136,경기도 군포시청,031-390-0295,2026-03-18,4020000,경기도 군포시
능내초등학교,경기도,군포시,경기도 군포시 수리산로 37,경기도 군포시 산본동 1152-5,37.35485983,126.9214275,경기도 군포시청,031-390-0295,2026-03-18,4020000,경기도 군포시
둔전초등학교,경기도,군포시,경기도 군포시 고산로 542,경기도 군포시 산본동 1146-18,37.36148222,126.9243647,경기도 군포시청,031-390-0295,2026-03-18,4020000,경기도 군포시
수리초등학교,경기도,군포시,경기도 군포시 수리산로 125,경기도 군포시 산본동 1150-1,37.36039563,126.9180787,경기도 군포시청,031-390-0295,2026-03-18,4020000,경기도 군포시
궁내초등학교,경기도,군포시,경기도 군포시 수리산로 187,경기도 군포시 산본동 1149-3,37.36461098,126.920170,경기도 군포시청,031-390-0295,2026-03-18,4020000,경기도 군포시
한얼초등학교,경기도,군포시,경기도 군포시 산본천로 136,경기도 군포시 산본동 212-5,37.36623705,126.9356734,경기도 군포시청,031-390-0295,2026-03-18,4020000,경기도 군포시
광정초등학교,경기도,군포시,경기도 군포시 산본로386번길 5-20,경기도 군포시 산본동 1092-2,37.36593675,126.9305979,경기도 군포시청,031-390-0295,2026-03-18,4020000,경기도 군포시
산본초등학교,경기도,군포시,경기도 군포시 산본로386번길 60,경기도 군포시 산본동 209,37.36877717,126.9345913,경기도 군포시청,031-390-0295,2026-03-18,4020000,경기도 군포시
태을초등학교,경기도,군포시,경기도 군포시 산본로 451-49,경기도 군포시 산본동 1089,37.37205306,126.9263632,경기도 군포시청,031-390-0295,2026-03-18,4020000,경기도 군포시
반원초등학교,서울특별시,서초구,서울특별시 서초구 잠원로3길 28,서울특별시 서초구 잠원동 72,37.510312,127.0040022,서울특별시 서초구청,02-2155-7185,2026-02-09,3210000,서울특별시 서초구
매헌초등학교,서울특별시,서초구,서울특별시 서초구 언남길 8,서울특별시 서초구 양재동 311-1,37.47126248,127.0420579,서울특별시 서초구청,02-2155-7185,2026-02-09,3210000,서울특별시 서초구
계성초등학교,서울특별시,서초구,서울특별시 서초구 신반포로19길 26,서울특별시 서초구 반포동 3-1,37.50626532,126.9961242,서울특별시 서초구청,02-2155-7185,2026-02-09,3210000,서울특별시 서초구
서울교대부설초등학교,서울특별시,서초구,서울특별시 서초구 서초중앙로18길 43,서울특별시 서초구 서초동 1665-9,37.49166952,127.0167216,서울특별시 서초구청,02-2155-7185,2026-02-09,3210000,서울특별시 서초구
사남초정문맞은편,부산광역시,사하구,부산광역시 사하구 장평로 390,부산광역시 사하구 괴정동 1206-9,35.09618198,128.98253796,부산광역시 사하구청,051-220-4552,2026-01-13,3340000,부산광역시 사하구
사남초정문,부산광역시,사하구,부산광역시 사하구 장평로 390,부산광역시 사하구 괴정동 1206-9,35.09618198,128.98253796,부산광역시 사하구청,051-220-4552,2026-01-13,3340000,부산광역시 사하구
승학초정문,부산광역시,사하구,부산광역시 사하구 낙동대로135번길 55,부산광역시 사하구 괴정동 354-111,35.10159470,129.00329046,부산광역시 사하구청,051-220-4552,2026-01-13,3340000,부산광역시 사하구
효림초정문,부산광역시,사하구,부산광역시 사하구 장평로 106,부산광역시 사하구 장림동 394,35.07580836,128.97368802,부산광역시 사하구청,051-220-4552,2026-01-13,3340000,부산광역시 사하구
중현초(푸른아파트담장),부산광역시,사하구,부산광역시 사하구 다대낙조2길 8,부산광역시 사하구 다대동 1550-4,35.05085209,128.96660131,부산광역시 사하구청,051-220-4552,2026-01-13,3340000,부산광역시 사하구
옥천초정문2,부산광역시,사하구,부산광역시 사하구 사하로 134,부산광역시 사하구 감천동 824-13,35.09304621,128.99387234,부산광역시 사하구청,051-220-4552,2026-01-13,3340000,부산광역시 사하구
옥천초정문1,부산광역시,사하구,부산광역시 사하구 사하로 134,부산광역시 사하구 감천동 824-13,35.09304621,128.99387234,부산광역시 사하구청,051-220-4552,2026-01-13,3340000,부산광역시 사하구
신남초정문,부산광역시,사하구,부산광역시 사하구 비봉로 88,부산광역시 사하구 하단동 870-302,35.09893335,128.96135467,부산광역시 사하구청,051-220-4552,2026-01-13,3340000,부산광역시 사하구
보림초(장림1주민센터앞),부산광역시,사하구,부산광역시 사하구 장림로161번길 2,부산광역시 사하구 장림동 1140,35.08300758,128.96690205,부산광역시 사하구청,051-220-4552,2026-01-13,3340000,부산광역시 사하구
보림초,부산광역시,사하구,부산광역시 사하구 장림로161번길 20,부산광역시 사하구 장림동 1137,35.08394342,128.96744363,부산광역시 사하구청,051-220-4552,2026-01-13,3340000,부산광역시 사하구
당리초정문,부산광역시,사하구,부산광역시 사하구 다대로22번길 12,부산광역시 사하구 당리동 511,35.09994627,128.97506198,부산광역시 사하구청,051-220-4552,2026-01-13,3340000,부산광역시 사하구
괴정초후문,부산광역시,사하구,부산광역시 사하구 낙동대로 152,부산광역시 사하구 괴정동 230,35.10359314,128.99960286,부산광역시 사하구청,051-220-4552,2026-01-13,3340000,부산광역시 사하구
사하초정문,부산광역시,사하구,부산광역시 사하구 낙동대로264번길 14,부산광역시 사하구 괴정동 779-4,35.10003468,128.98825127,부산광역시 사하구청,051-220-4552,2026-01-13,3340000,부산광역시 사하구
서울프랑스학교,서울특별시,서초구,서울특별시 서초구 서래로 7,서울특별시 서초구 반포동 98-2,37.49582982,126.9978408,서울특별시 서초구청,02-2155-7185,2026-02-09,3210000,서울특별시 서초구
까리따스어린이집,서울특별시,서초구,서울특별시 서초구 남부순환로 2124,서울특별시 서초구 방배동3274,37.47498587,126.9843744,서울특별시 서초구청,02-2155-7185,2026-02-09,3210000,서울특별시 서초구
잠원초등학교,서울특별시,서초구,서울특별시 서초구 신반포로16길 15-25,서울특별시 서초구 반포동 17,37.501859,126.9980045,서울특별시 서초구청,02-2155-7185,2026-02-09,3210000,서울특별시 서초구
원명초등학교,서울특별시,서초구,서울특별시 서초구 고무래로 90-6,서울특별시 서초구 서초동 1685-1,37.50077708,127.0167076,서울특별시 서초구청,02-2155-7185,2026-02-09,3210000,서울특별시 서초구
우암초등학교,서울특별시,서초구,서울특별시 서초구 바우뫼로7길 38,서울특별시 서초구 우면동 58,37.472205,127.0237234,서울특별시 서초구청,02-2155-7185,2026-02-09,3210000,서울특별시 서초구
우면초등학교,서울특별시,서초구,서울특별시 서초구 태봉로 59,서울특별시 서초구 우면동 690,37.46471047,127.0237693,서울특별시 서초구청,02-2155-7185,2026-02-09,3210000,서울특별시 서초구
우솔초등학교,서울특별시,서초구,서울특별시 서초구 양재대로2길 74,서울특별시 서초구 우면동 774,37.45709422,127.0192756,서울특별시 서초구청,02-2155-7185,2026-02-09,3210000,서울특별시 서초구
언남초등학교,서울특별시,서초구,서울특별시 서초구 헌릉로8길 42,서울특별시 서초구 내곡동 395,37.45380928,127.061430,서울특별시 서초구청,02-2155-7185,2026-02-09,3210000,서울특별시 서초구
양재초등학교,서울특별시,서초구,서울특별시 서초구 바우뫼로18길 14,서울특별시 서초구 양재동 101,37.47416538,127.0318925,서울특별시 서초구청,02-2155-7185,2026-02-09,3210000,서울특별시 서초구
신중초등학교,서울특별시,서초구,서울특별시 서초구 남부순환로317길 15,서울특별시 서초구 서초동 1466-5,37.48015788,127.0093433,서울특별시 서초구청,02-2155-7185,2026-02-09,3210000,서울특별시 서초구
신동초등학교,서울특별시,서초구,서울특별시 서초구 나루터로 15,서울특별시 서초구 잠원동 54-5,37.51713004,127.0113904,서울특별시 서초구청,02-2155-7185,2026-02-09,3210000,서울특별시 서초구
서초초등학교,서울특별시,서초구,서울특별시 서초구 서운로 178,서울특별시 서초구 서초동 1310-6,37.49904877,127.0248915,서울특별시 서초구청,02-2155-7185,2026-02-09,3210000,서울특별시 서초구
서일초등학교,서울특별시,서초구,서울특별시 서초구 효령로68길 49-3,서울특별시 서초구 서초동 1436-6,37.48545764,127.022509,서울특별시 서초구청,02-2155-7185,2026-02-09,3210000,서울특별시 서초구
서원초등학교,서울특별시,서초구,서울특별시 서초구 고무래로 63,서울특별시 서초구 반포동 30-8,37.5024389,127.0146195,서울특별시 서초구청,02-2155-7185,2026-02-09,3210000,서울특별시 서초구
서이초등학교,서울특별시,서초구,서울특별시 서초구 서운로 35,서울특별시 서초구 서초동 1334-2,37.49156467,127.025618,서울특별시 서초구청,02-2155-7185,2026-02-09,3210000,서울특별시 서초구
서래초등학교,서울특별시,서초구,서울특별시 서초구 방배로 260,서울특별시 서초구 방배동 771,37.496404,126.9901565,서울특별시 서초구청,02-2155-7185,2026-02-09,3210000,서울특별시 서초구
방현초등학교,서울특별시,서초구,서울특별시 서초구 남부순환로295길 8,서울특별시 서초구 방배동 488-3,37.47442077,126.9930332,서울특별시 서초구청,02-2155-7185,2026-02-09,3210000,서울특별시 서초구
방배초등학교,서울특별시,서초구,서울특별시 서초구 방배천로34길 27,서울특별시 서초구 방배동 858-1,37.488144,126.9878162,서울특별시 서초구청,02-2155-7185,2026-02-09,3210000,서울특별시 서초구
사남초힐스입구,부산광역시,사하구,부산광역시 사하구 장평로 390,부산광역시 사하구 괴정동 1206-9,35.09618198,128.98253796,부산광역시 사하구청,051-220-4552,2026-01-13,3340000,부산광역시 사하구
낙동초정문,부산광역시,사하구,부산광역시 사하구 제석로 41,부산광역시 사하구 당리동 313-6,35.10539596,128.97295156,부산광역시 사하구청,051-220-4552,2026-01-13,3340000,부산광역시 사하구
하남초정문2,부산광역시,사하구,부산광역시 사하구 하신번영로 186,부산광역시 사하구 하단동 1181-25,35.09935773,128.95994471,부산광역시 사하구청,051-220-4552,2026-01-13,3340000,부산광역시 사하구
하남초정문1,부산광역시,사하구,부산광역시 사하구 하신번영로 186,부산광역시 사하구 하단동 1181-25,35.09935773,128.95994471,부산광역시 사하구청,051-220-4552,2026-01-13,3340000,부산광역시 사하구
하남초(부산은행2),부산광역시,사하구,부산광역시 사하구 하신번영로 183,부산광역시 사하구 신평동 590-12,35.09870671,128.96015041,부산광역시 사하구청,051-220-4552,2026-01-13,3340000,부산광역시 사하구
하남초(부산은행1),부산광역시,사하구,부산광역시 사하구 하신번영로 183,부산광역시 사하구 신평동 590-12,35.09870671,128.96015041,부산광역시 사하구청,051-220-4552,2026-01-13,3340000,부산광역시 사하구
하남초(CU편의점2),부산광역시,사하구,부산광역시 사하구 하신번영로 210,부산광역시 사하구 하단동 1181-1,35.09975704,128.95849543,부산광역시 사하구청,051-220-4552,2026-01-13,3340000,부산광역시 사하구
하남초(CU편의점1),부산광역시,사하구,부산광역시 사하구 하신번영로 210,부산광역시 사하구 하단동 1181-1,35.09975704,128.95849543,부산광역시 사하구청,051-220-4552,2026-01-13,3340000,부산광역시 사하구
하남초(해바라기공원2),부산광역시,사하구,,부산광역시 사하구 하단동 1184-4,35.09927344,128.95798373,부산광역시 사하구청,051-220-4552,2026-01-13,3340000,부산광역시 사하구
하남초(해바라기공원1),부산광역시,사하구,,부산광역시 사하구 하단동 1184-4,35.09927344,128.95798373,부산광역시 사하구청,051-220-4552,2026-01-13,3340000,부산광역시 사하구
하남초(세븐일레븐2),부산광역시,사하구,부산광역시 사하구 하신번영로 201,부산광역시 사하구 신평동 589-1,35.09885314,128.95837906,부산광역시 사하구청,051-220-4552,2026-01-13,3340000,부산광역시 사하구
하남초(세븐일레븐1),부산광역시,사하구,부산광역시 사하구 하신번영로 201,부산광역시 사하구 신평동 589-1,35.09885314,128.95837906,부산광역시 사하구청,051-220-4552,2026-01-13,3340000,부산광역시 사하구
하단초(이마트24),부산광역시,사하구,부산광역시 사하구 하신중앙로335번길 28,부산광역시 사하구 하단동 592-12,35.10563170,128.96529306,부산광역시 사하구청,051-220-4552,2026-01-13,3340000,부산광역시 사하구
하단초(CU편의점),부산광역시,사하구,부산광역시 사하구 낙동남로1390번길 5,부산광역시 사하구 하단동 592-4,35.10566655,128.96407127,부산광역시 사하구청,051-220-4552,2026-01-13,3340000,부산광역시 사하구
몰운대초(롯데캐슬219동앞2),부산광역시,사하구,부산광역시 사하구 다대낙조2길 100,부산광역시 사하구 다대동 1624,35.05663364,128.96564850,부산광역시 사하구청,051-220-4552,2026-01-13,3340000,부산광역시 사하구
몰운대초(롯데캐슬219동앞1),부산광역시,사하구,부산광역시 사하구 다대낙조2길 100,부산광역시 사하구 다대동 1624,35.05663364,128.96564850,부산광역시 사하구청,051-220-4552,2026-01-13,3340000,부산광역시 사하구
몰운대초(학교담장),부산광역시,사하구,부산광역시 사하구 다대낙조2길 110,부산광역시 사하구 다대동 1633,35.05487781,128.96311391,부산광역시 사하구청,051-220-4552,2026-01-13,3340000,부산광역시 사하구
몰운대초(카페051),부산광역시,사하구,부산광역시 사하구 다대낙조2길 100,부산광역시 사하구 다대동 1624,35.05663364,128.96564850,부산광역시 사하구청,051-220-4552,2026-01-13,3340000,부산광역시 사하구
몰운대초(롯데캐슬308동앞),부산광역시,사하구,부산광역시 사하구 다대낙조2길 100,부산광역시 사하구 다대동 1624,35.05663364,128.96564850,부산광역시 사하구청,051-220-4552,2026-01-13,3340000,부산광역시 사하구
몰운대초(롯데캐슬307동앞),부산광역시,사하구,부산광역시 사하구 다대낙조2길 100,부산광역시 사하구 다대동 1624,35.05663364,128.96564850,부산광역시 사하구청,051-220-4552,2026-01-13,3340000,부산광역시 사하구
장림초(홍콩반점2),부산광역시,사하구,부산광역시 사하구 장림번영로103번길 5,부산광역시 사하구 장림동 316-2,35.08094187,128.97626169,부산광역시 사하구청,051-220-4552,2026-01-13,3340000,부산광역시 사하구
장림초(홍콩반점1),부산광역시,사하구,부산광역시 사하구 장림번영로103번길 5,부산광역시 사하구 장림동 316-2,35.08094187,128.97626169,부산광역시 사하구청,051-220-4552,2026-01-13,3340000,부산광역시 사하구
장림초(티월드),부산광역시,사하구,부산광역시 사하구 장림번영로104번길 10,부산광역시 사하구 장림동 1151,35.08009498,128.97638586,부산광역시 사하구청,051-220-4552,2026-01-13,3340000,부산광역시 사하구
장림초(이삭토스트),부산광역시,사하구,부산광역시 사하구 장림번영로 103-1,부산광역시 사하구 장림동 193-4,35.08075869,128.97672374,부산광역시 사하구청,051-220-4552,2026-01-13,3340000,부산광역시 사하구
장림초(CU편의점),부산광역시,사하구,부산광역시 사하구 장림번영로 104,부산광역시 사하구 장림동 193-6,35.08027522,128.97687213,부산광역시 사하구청,051-220-4552,2026-01-13,3340000,부산광역시 사하구
신평초(CU편의점4),부산광역시,사하구,부산광역시 사하구 장평로299번길 13,부산광역시 사하구 신평동 286-18,35.09287275,128.97232927,부산광역시 사하구청,051-220-4552,2026-01-13,3340000,부산광역시 사하구
신평초(CU편의점3),부산광역시,사하구,부산광역시 사하구 장평로299번길 13,부산광역시 사하구 신평동 286-18,35.09287275,128.97232927,부산광역시 사하구청,051-220-4552,2026-01-13,3340000,부산광역시 사하구
신평초(CU편의점2),부산광역시,사하구,부산광역시 사하구 장평로299번길 13,부산광역시 사하구 신평동 286-18,35.09287275,128.97232927,부산광역시 사하구청,051-220-4552,2026-01-13,3340000,부산광역시 사하구
신평초(CU편의점1),부산광역시,사하구,부산광역시 사하구 장평로299번길 13,부산광역시 사하구 신평동 286-18,35.09287275,128.97232927,부산광역시 사하구청,051-220-4552,2026-01-13,3340000,부산광역시 사하구
을숙도초후문,부산광역시,사하구,부산광역시 사하구 낙동대로 581,부산광역시 사하구 하단동 1217-2,35.11547085,128.96132727,부산광역시 사하구청,051-220-4552,2026-01-13,3340000,부산광역시 사하구
구평초입구,부산광역시,사하구,부산광역시 사하구 사하로 9,부산광역시 사하구 구평동 24-19,35.08707629,128.98955256,부산광역시 사하구청,051-220-4552,2026-01-13,3340000,부산광역시 사하구
다송초정문,부산광역시,사하구,부산광역시 사하구 다대로381번길 17,부산광역시 사하구 다대동 93,35.06930070,128.97975634,부산광역시 사하구청,051-220-4552,2026-01-13,3340000,부산광역시 사하구
다대초(GS편의점2),부산광역시,사하구,부산광역시 사하구 다대로 500,부산광역시 사하구 다대동 287-4,35.06078943,128.97409577,부산광역시 사하구청,051-220-4552,2026-01-13,3340000,부산광역시 사하구
다대초(GS편의점1),부산광역시,사하구,부산광역시 사하구 다대로 500,부산광역시 사하구 다대동 287-4,35.06078943,128.97409577,부산광역시 사하구청,051-220-4552,2026-01-13,3340000,부산광역시 사하구
응봉초정문,부산광역시,사하구,부산광역시 사하구 다대낙조2길 26,부산광역시 사하구 다대동 1549-4,35.05291102,128.96531356,부산광역시 사하구청,051-220-4552,2026-01-13,3340000,부산광역시 사하구
토성초등학교,부산광역시,서구,부산광역시 서구 구덕로134번길 45,부산광역시 서구 토성동2가 25,35.099243,129.0212815,부산광역시 서구,051-240-4557,2025-12-01,3260000,부산광역시 서구
구덕초등학교,부산광역시,서구,부산광역시 서구 보수대로 312,부산광역시 서구 서대신동3가 41-1,35.1204163,129.0125331,부산광역시 서구,051-240-4557,2025-12-01,3260000,부산광역시 서구
교룡초등학교,전북특별자치도,남원시,전북특별자치도 남원시 광천남길 654,전북특별자치도 남원시 향교동 740-2,35.41665571,127.3782083,전북특별자치도 남원시,063-620-6985,2025-11-04,4701000,전북특별자치도 남원시
부천남초등학교3,경기도,부천시,경기도 부천시 소사구 성주로270번길 16-1,경기도 부천시 소사구 심곡본동 731,37.48117626,126.7829631,경기도 부천시청,032-625-3843,2025-11-07,3860000,경기도 부천시
창영초등학교2,경기도,부천시,경기도 부천시 소사구 은성로 109-26,경기도 부천시 소사구 괴안동 204-6,37.47516929,126.8048426,경기도 부천시청,032-625-3843,2025-11-07,3860000,경기도 부천시
창영초등학교1,경기도,부천시,경기도 부천시 소사구 은성로 109-26,경기도 부천시 소사구 괴안동 204-10,37.47516929,126.8048426,경기도 부천시청,032-625-3843,2025-11-07,3860000,경기도 부천시
중흥초등학교2,경기도,부천시,경기도 부천시 원미구 계남로 214,경기도 부천시 원미구 중동 1051-4,37.50668196,126.7732474,경기도 부천시청,032-625-3843,2025-11-07,3860000,경기도 부천시
중흥초등학교1,경기도,부천시,경기도 부천시 원미구 계남로 214,경기도 부천시 원미구 중동 1233,37.50668196,126.7732474,경기도 부천시청,032-625-3843,2025-11-07,3860000,경기도 부천시
중동초등학교2,경기도,부천시,경기도 부천시 원미구 심중로75번길 37,경기도 부천시 원미구 중동 1298,37.49002712,126.7693602,경기도 부천시청,032-625-3843,2025-11-07,3860000,경기도 부천시
중동초등학교1,경기도,부천시,경기도 부천시 원미구 심중로75번길 37,경기도 부천시 원미구 중동 777,37.49002712,126.7693602,경기도 부천시청,032-625-3843,2025-11-07,3860000,경기도 부천시
원종초등학교,경기도,부천시,경기도 부천시 오정구 삼작로410번길 38,경기도 부천시 오정구 원종동 439,37.51826652,126.8063074,경기도 부천시청,032-625-3843,2025-11-07,3860000,경기도 부천시
원미초등학교,경기도,부천시,경기도 부천시 원미구 부흥로 423,경기도 부천시 원미구 심곡동 184,37.48963631,126.7872986,경기도 부천시청,032-625-3843,2025-11-07,3860000,경기도 부천시
옥산초등학교,경기도,부천시,경기도 부천시 원미구 길주로 327,경기도 부천시 원미구 중동 1239,37.50314849,126.779428,경기도 부천시청,032-625-3843,2025-11-07,3860000,경기도 부천시
옥길유치원7,경기도,부천시,경기도 부천시 소사구 양지로166번길 56,경기도 부천시 소사구 옥길동 711-1,37.46831028,126.8178821,경기도 부천시청,032-625-3843,2025-11-07,3860000,경기도 부천시
옥길유치원6,경기도,부천시,경기도 부천시 소사구 양지로166번길 56,경기도 부천시 소사구 옥길동 701-4,37.46831028,126.8178821,경기도 부천시청,032-625-3843,2025-11-07,3860000,경기도 부천시
옥길유치원5,경기도,부천시,경기도 부천시 소사구 양지로166번길 56,경기도 부천시 소사구 옥길동 710-9,37.46831028,126.8178821,경기도 부천시청,032-625-3843,2025-11-07,3860000,경기도 부천시
옥길유치원4,경기도,부천시,경기도 부천시 소사구 양지로166번길 56,경기도 부천시 소사구 옥길동 710-9,37.46831028,126.8178821,경기도 부천시청,032-625-3843,2025-11-07,3860000,경기도 부천시
옥길유치원3,경기도,부천시,경기도 부천시 소사구 양지로166번길 56,경기도 부천시 소사구 옥길동 712-5,37.46831028,126.8178821,경기도 부천시청,032-625-3843,2025-11-07,3860000,경기도 부천시
옥길유치원2,경기도,부천시,경기도 부천시 소사구 양지로166번길 56,경기도 부천시 소사구 범박동 235-3,37.46831028,126.8178821,경기도 부천시청,032-625-3843,2025-11-07,3860000,경기도 부천시
옥길유치원1,경기도,부천시,경기도 부천시 소사구 양지로166번길 56,경기도 부천시 소사구 옥길동 711-3,37.46831028,126.8178821,경기도 부천시청,032-625-3843,2025-11-07,3860000,경기도 부천시
옥길산들초등학교4,경기도,부천시,경기도 부천시 소사구 옥길로 31,경기도 부천시 소사구 옥길동 781,37.46254007,126.8164547,경기도 부천시청,032-625-3843,2025-11-07,3860000,경기도 부천시
옥길산들초등학교3,경기도,부천시,경기도 부천시 소사구 옥길로 31,경기도 부천시 소사구 옥길동 781,37.46254007,126.8164547,경기도 부천시청,032-625-3843,2025-11-07,3860000,경기도 부천시
옥길산들초등학교2,경기도,부천시,경기도 부천시 소사구 옥길로 31,경기도 부천시 소사구 옥길동 781,37.46254007,126.8164547,경기도 부천시청,032-625-3843,2025-11-07,3860000,경기도 부천시
옥길산들초등학교1,경기도,부천시,경기도 부천시 소사구 옥길로 31,경기도 부천시 소사구 옥길동 781,37.46254007,126.8164547,경기도 부천시청,032-625-3843,2025-11-07,3860000,경기도 부천시
옥길버들초등학교8,경기도,부천시,경기도 부천시 소사구 양지로 234-25,경기도 부천시 소사구 옥길동 741,37.46427185,126.8260095,경기도 부천시청,032-625-3843,2025-11-07,3860000,경기도 부천시
옥길버들초등학교7,경기도,부천시,경기도 부천시 소사구 양지로 234-25,경기도 부천시 소사구 옥길동 741,37.46427185,126.8260095,경기도 부천시청,032-625-3843,2025-11-07,3860000,경기도 부천시
옥길버들초등학교6,경기도,부천시,경기도 부천시 소사구 양지로 234-25,경기도 부천시 소사구 옥길동 741,37.46427185,126.8260095,경기도 부천시청,032-625-3843,2025-11-07,3860000,경기도 부천시
옥길버들초등학교5,경기도,부천시,경기도 부천시 소사구 양지로 234-25,경기도 부천시 소사구 옥길동 741,37.46427185,126.8260095,경기도 부천시청,032-625-3843,2025-11-07,3860000,경기도 부천시
옥길버들초등학교4,경기도,부천시,경기도 부천시 소사구 양지로 234-25,경기도 부천시 소사구 옥길동 741,37.46427185,126.8260095,경기도 부천시청,032-625-3843,2025-11-07,3860000,경기도 부천시
옥길버들초등학교3,경기도,부천시,경기도 부천시 소사구 양지로 234-25,경기도 부천시 소사구 옥길동 741,37.46427185,126.8260095,경기도 부천시청,032-625-3843,2025-11-07,3860000,경기도 부천시
옥길버들초등학교2,경기도,부천시,경기도 부천시 소사구 양지로 234-25,경기도 부천시 소사구 옥길동 741,37.46427185,126.8260095,경기도 부천시청,032-625-3843,2025-11-07,3860000,경기도 부천시
옥길버들초등학교1,경기도,부천시,경기도 부천시 소사구 양지로 234-25,경기도 부천시 소사구 옥길동 741,37.46427185,126.8260095,경기도 부천시청,032-625-3843,2025-11-07,3860000,경기도 부천시
오정초등학교,경기도,부천시,경기도 부천시 오정구 소사로794번길 48,경기도 부천시 오정구 원종동 247,37.52717104,126.8075305,경기도 부천시청,032-625-3843,2025-11-07,3860000,경기도 부천시
예일유치원2,경기도,부천시,경기도 부천시 소사구 범안로 154,경기도 부천시 소사구 범박동 152-3,37.46811922,126.8090648,경기도 부천시청,032-625-3843,2025-11-07,3860000,경기도 부천시
예일유치원1,경기도,부천시,경기도 부천시 소사구 범안로 154,경기도 부천시 소사구 범박동 151-3,37.46811922,126.8090648,경기도 부천시청,032-625-3843,2025-11-07,3860000,경기도 부천시
약대초등학교,경기도,부천시,경기도 부천시 원미구 수도로66번길 14,경기도 부천시 원미구 약대동 112,37.51360773,126.7727484,경기도 부천시청,032-625-3843,2025-11-07,3860000,경기도 부천시
심원초등학교2,경기도,부천시,경기도 부천시 원미구 옥산로 66,경기도 부천시 원미구 중동 1097-3,37.49943237,126.7812105,경기도 부천시청,032-625-3843,2025-11-07,3860000,경기도 부천시
심원초등학교1,경기도,부천시,경기도 부천시 원미구 옥산로 66,경기도 부천시 원미구 중동 1280,37.49943237,126.7812105,경기도 부천시청,032-625-3843,2025-11-07,3860000,경기도 부천시
심곡초등학교,경기도,부천시,경기도 부천시 원미구 장말로 309,경기도 부천시 원미구 심곡동 300,37.49175137,126.7769146,경기도 부천시청,032-625-3843,2025-11-07,3860000,경기도 부천시
신도초등학교,경기도,부천시,경기도 부천시 원미구 부흥로 137,경기도 부천시 원미구 중동 1172,37.49783185,126.7581195,경기도 부천시청,032-625-3843,2025-11-07,3860000,경기도 부천시
송내초등학교3,경기도,부천시,경기도 부천시 원미구 석천로 27,경기도 부천시 원미구 상동 331,37.4906788,126.7587493,경기도 부천시청,032-625-3843,2025-11-07,3860000,경기도 부천시
송내초등학교2,경기도,부천시,경기도 부천시 원미구 석천로 27,경기도 부천시 원미구 상동 430,37.4906788,126.7587493,경기도 부천시청,032-625-3843,2025-11-07,3860000,경기도 부천시
송내초등학교1,경기도,부천시,경기도 부천시 원미구 석천로 27,경기도 부천시 원미구 상동 488,37.4906788,126.7587493,경기도 부천시청,032-625-3843,2025-11-07,3860000,경기도 부천시
솔안초등학교,경기도,부천시,경기도 부천시 소사구 경인로1185번길 27,경기도 부천시 소사구 송내동 702-1,37.48571771,126.7508603,경기도 부천시청,032-625-3843,2025-11-07,3860000,경기도 부천시
소안초등학교3,경기도,부천시,경기도 부천시 소사구 소사동로72번길 29,경기도 부천시 소사구 소사본동 407-1,37.47237523,126.804222,경기도 부천시청,032-625-3843,2025-11-07,3860000,경기도 부천시
소안초등학교2,경기도,부천시,경기도 부천시 소사구 소사동로72번길 29,경기도 부천시 소사구 소사본동 409-9,37.47237523,126.804222,경기도 부천시청,032-625-3843,2025-11-07,3860000,경기도 부천시
소안초등학교1,경기도,부천시,경기도 부천시 소사구 소사동로72번길 29,경기도 부천시 소사구 소사본동 410,37.47237523,126.804222,경기도 부천시청,032-625-3843,2025-11-07,3860000,경기도 부천시
소사초등학교,경기도,부천시,경기도 부천시 소사구 은성로 58,경기도 부천시 소사구 소사본동 309-2,37.47361187,126.7973298,경기도 부천시청,032-625-3843,2025-11-07,3860000,경기도 부천시
성주초등학교,경기도,부천시,경기도 부천시 소사구 성주로 118,경기도 부천시 소사구 송내동 475,37.47845899,126.7696295,경기도 부천시청,032-625-3843,2025-11-07,3860000,경기도 부천시
성곡초등학교7,경기도,부천시,경기도 부천시 오정구 여월로 75,경기도 부천시 오정구 여월동 324,37.5129789,126.8056547,경기도 부천시청,032-625-3843,2025-11-07,3860000,경기도 부천시
성곡초등학교6,경기도,부천시,경기도 부천시 오정구 여월로 75,경기도 부천시 오정구 여월동 324,37.5129789,126.8056547,경기도 부천시청,032-625-3843,2025-11-07,3860000,경기도 부천시
성곡초등학교5,경기도,부천시,경기도 부천시 오정구 여월로 75,경기도 부천시 오정구 여월동 324,37.5129789,126.8056547,경기도 부천시청,032-625-3843,2025-11-07,3860000,경기도 부천시
성곡초등학교4,경기도,부천시,경기도 부천시 오정구 여월로 75,경기도 부천시 오정구 여월동 327,37.5129789,126.8056547,경기도 부천시청,032-625-3843,2025-11-07,3860000,경기도 부천시
성곡초등학교3,경기도,부천시,경기도 부천시 오정구 여월로 75,경기도 부천시 오정구 여월동 324,37.5129789,126.8056547,경기도 부천시청,032-625-3843,2025-11-07,3860000,경기도 부천시
성곡초등학교2,경기도,부천시,경기도 부천시 오정구 여월로 75,경기도 부천시 오정구 여월동 320,37.5129789,126.8056547,경기도 부천시청,032-625-3843,2025-11-07,3860000,경기도 부천시
성곡초등학교1,경기도,부천시,경기도 부천시 오정구 여월로 75,경기도 부천시 오정구 여월동 320,37.5129789,126.8056547,경기도 부천시청,032-625-3843,2025-11-07,3860000,경기도 부천시
석천초등학교,경기도,부천시,경기도 부천시 원미구 계남로 29,경기도 부천시 원미구 상동 629,37.51058105,126.7522971,경기도 부천시청,032-625-3843,2025-11-07,3860000,경기도 부천시
상지초등학교,경기도,부천시,경기도 부천시 원미구 장말로 189,경기도 부천시 원미구 중동 758,37.49402063,126.7634728,경기도 부천시청,032-625-3843,2025-11-07,3860000,경기도 부천시
상일초등학교,경기도,부천시,경기도 부천시 원미구 조마루로 57,경기도 부천시 원미구 상동 550-5,37.50180265,126.7504011,경기도 부천시청,032-625-3843,2025-11-07,3860000,경기도 부천시
상인초등학교,경기도,부천시,경기도 부천시 원미구 도약로 61,경기도 부천시 원미구 상동 629,37.51280378,126.756348,경기도 부천시청,032-625-3843,2025-11-07,3860000,경기도 부천시
상원초등학교2,경기도,부천시,경기도 부천시 원미구 부흥로 93,경기도 부천시 원미구 상동 570-7,37.4982718,126.7532784,경기도 부천시청,032-625-3843,2025-11-07,3860000,경기도 부천시
상원초등학교1,경기도,부천시,경기도 부천시 원미구 부흥로 93,경기도 부천시 원미구 상동 635,37.4982718,126.7532784,경기도 부천시청,032-625-3843,2025-11-07,3860000,경기도 부천시
상미초등학교,경기도,부천시,경기도 부천시 원미구 상이로 64,경기도 부천시 원미구 상동 588-7,37.49472737,126.7445622,경기도 부천시청,032-625-3843,2025-11-07,3860000,경기도 부천시
상동초등학교2,경기도,부천시,경기도 부천시 원미구 부흥로 70,경기도 부천시 원미구 상동 571-10,37.49687044,126.750177,경기도 부천시청,032-625-3843,2025-11-07,3860000,경기도 부천시
상동초등학교1,경기도,부천시,경기도 부천시 원미구 부흥로 70,경기도 부천시 원미구 상동 468,37.49687044,126.750177,경기도 부천시청,032-625-3843,2025-11-07,3860000,경기도 부천시
상도초등학교,경기도,부천시,경기도 부천시 원미구 장말로 149,경기도 부천시 원미구 상동 418,37.49448521,126.7592496,경기도 부천시청,032-625-3843,2025-11-07,3860000,경기도 부천시
부천초등학교,경기도,부천시,경기도 부천시 원미구 평천로 670,경기도 부천시 원미구 약대동 29,37.5141701,126.7648576,경기도 부천시청,032-625-3843,2025-11-07,3860000,경기도 부천시
중원초등학교3,경기도,부천시,경기도 부천시 원미구 석천로 273,경기도 부천시 원미구 중동 1228,37.51207326,126.7637621,경기도 부천시청,032-625-3843,2025-11-07,3860000,경기도 부천시
중원초등학교2,경기도,부천시,경기도 부천시 원미구 석천로 273,경기도 부천시 원미구 중동 1228,37.51207326,126.7637621,경기도 부천시청,032-625-3843,2025-11-07,3860000,경기도 부천시
중원초등학교1,경기도,부천시,경기도 부천시 원미구 석천로 273,경기도 부천시 원미구 중동 1228,37.51207326,126.7637621,경기도 부천시청,032-625-3843,2025-11-07,3860000,경기도 부천시
중앙초등학교,경기도,부천시,경기도 부천시 원미구 옥산로 30,경기도 부천시 원미구 중동 1275,37.4964992,126.7818257,경기도 부천시청,032-625-3843,2025-11-07,3860000,경기도 부천시
일신초등학교2,경기도,부천시,경기도 부천시 소사구 범안로96번길 26,경기도 부천시 소사구 범박동 153-8,37.47362374,126.8070012,경기도 부천시청,032-625-3843,2025-11-07,3860000,경기도 부천시
일신초등학교1,경기도,부천시,경기도 부천시 소사구 범안로96번길 26,경기도 부천시 소사구 범박동 153-8,37.47362374,126.8070012,경기도 부천시청,032-625-3843,2025-11-07,3860000,경기도 부천시
원일초등학교,경기도,부천시,경기도 부천시 오정구 소사로819번길 46,경기도 부천시 오정구 원종동 105-7,37.53034695,126.802763,경기도 부천시청,032-625-3843,2025-11-07,3860000,경기도 부천시
역곡초등학교2,경기도,부천시,경기도 부천시 원미구 역곡로65번길 12,경기도 부천시 원미구 역곡동 257-3,37.49083071,126.8074876,경기도 부천시청,032-625-3843,2025-11-07,3860000,경기도 부천시
역곡초등학교1,경기도,부천시,경기도 부천시 원미구 역곡로65번길 12,경기도 부천시 원미구 역곡동 178-26,37.49083071,126.8074876,경기도 부천시청,032-625-3843,2025-11-07,3860000,경기도 부천시
여월초등학교,경기도,부천시,경기도 부천시 오정구 성곡로63번길 23,경기도 부천시 오정구 여월동 194,37.51813266,126.7966782,경기도 부천시청,032-625-3843,2025-11-07,3860000,경기도 부천시
양지초등학교2,경기도,부천시,경기도 부천시 소사구 안곡로 130,경기도 부천시 소사구 괴안동 47,37.48059692,126.815527,경기도 부천시청,032-625-3843,2025-11-07,3860000,경기도 부천시
양지초등학교1,경기도,부천시,경기도 부천시 소사구 안곡로 130,경기도 부천시 소사구 괴안동 209-11,37.48059692,126.815527,경기도 부천시청,032-625-3843,2025-11-07,3860000,경기도 부천시
신흥초등학교,경기도,부천시,경기도 부천시 원미구 길주로391번길 71,경기도 부천시 원미구 도당동 267,37.50640474,126.7847155,경기도 부천시청,032-625-3843,2025-11-07,3860000,경기도 부천시
수주초등학교,경기도,부천시,경기도 부천시 오정구 고강로 99,경기도 부천시 오정구 고강동 275-15,37.53127063,126.8149996,경기도 부천시청,032-625-3843,2025-11-07,3860000,경기도 부천시
송일초등학교2,경기도,부천시,경기도 부천시 소사구 경인로60번길19,경기도 부천시 소사구 송내동 473,37.48301885,126.7624605,경기도 부천시청,032-625-3843,2025-11-07,3860000,경기도 부천시
송일초등학교1,경기도,부천시,경기도 부천시 소사구 경인로60번길19,경기도 부천시 소사구 송내동 393-3,37.48301885,126.7624605,경기도 부천시청,032-625-3843,2025-11-07,3860000,경기도 부천시
삼정초등학교,경기도,부천시,경기도 부천시 오정구 중동로 436,경기도 부천시 오정구 삼정동 335,37.51865966,126.770841,경기도 부천시청,032-625-3843,2025-11-07,3860000,경기도 부천시
부천북초등학교,경기도,부천시,경기도 부천시 원미구 원미로131번길 35,경기도 부천시 원미구 원미동 99-1,37.49366399,126.7881521,경기도 부천시청,032-625-3843,2025-11-07,3860000,경기도 부천시
부흥초등학교3,경기도,부천시,경기도 부천시 원미구 계남로 154,경기도 부천시 원미구 중동 1041,37.50756926,126.7663526,경기도 부천시청,032-625-3843,2025-11-07,3860000,경기도 부천시
부흥초등학교2,경기도,부천시,경기도 부천시 원미구 계남로 154,경기도 부천시 원미구 중동 1230,37.50756926,126.7663526,경기도 부천시청,032-625-3843,2025-11-07,3860000,경기도 부천시
부흥초등학교1,경기도,부천시,경기도 부천시 원미구 계남로 154,경기도 부천시 원미구 중동 1230,37.50756926,126.7663526,경기도 부천시청,032-625-3843,2025-11-07,3860000,경기도 부천시
부안초등학교,경기도,부천시,경기도 부천시 소사구 경인로484번길 75,경기도 부천시 소사구 괴안동 106-1,37.48009557,126.8119637,경기도 부천시청,032-625-3843,2025-11-07,3860000,경기도 부천시
부곡초등학교3,경기도,부천시,경기도 부천시 원미구 부흥로272번길 31,경기도 부천시 원미구 중동 1269-1,37.49408365,126.7731885,경기도 부천시청,032-625-3843,2025-11-07,3860000,경기도 부천시
부곡초등학교2,경기도,부천시,경기도 부천시 원미구 부흥로272번길 31,경기도 부천시 원미구 중동 1269-1,37.49408365,126.7731885,경기도 부천시청,032-625-3843,2025-11-07,3860000,경기도 부천시
부곡초등학교1,경기도,부천시,경기도 부천시 원미구 부흥로272번길 31,경기도 부천시 원미구 중동 1269-1,37.49408365,126.7731885,경기도 부천시청,032-625-3843,2025-11-07,3860000,경기도 부천시
부천동초등학교,경기도,부천시,경기도 부천시 원미구 지봉로51번길 22,경기도 부천시 원미구 역곡동 29-22,37.4879373,126.8038687,경기도 부천시청,032-625-3843,2025-11-07,3860000,경기도 부천시
덕산초등학교,경기도,부천시,경기도 부천시 오정구 오정로252번길 91,경기도 부천시 오정구 오정동 113-2,37.52986362,126.7907569,경기도 부천시청,032-625-3843,2025-11-07,3860000,경기도 부천시
대명초등학교2,경기도,부천시,경기도 부천시 오정구 성오로 160,경기도 부천시 오정구 원종동 463-5,37.52825675,126.7973557,경기도 부천시청,032-625-3843,2025-11-07,3860000,경기도 부천시
대명초등학교1,경기도,부천시,경기도 부천시 오정구 성오로 160,경기도 부천시 오정구 오정동 131-3,37.52825675,126.7973557,경기도 부천시청,032-625-3843,2025-11-07,3860000,경기도 부천시
부천남초등학교2,경기도,부천시,경기도 부천시 소사구 성주로270번길 16-1,경기도 부천시 소사구 심곡본동 563,37.48117626,126.7829631,경기도 부천시청,032-625-3843,2025-11-07,3860000,경기도 부천시
부천남초등학교1,경기도,부천시,경기도 부천시 소사구 성주로270번길 16-1,경기도 부천시 소사구 심곡본동 563,37.48117626,126.7829631,경기도 부천시청,032-625-3843,2025-11-07,3860000,경기도 부천시
부일초등학교2,경기도,부천시,경기도 부천시 원미구 원미로182번길 31,경기도 부천시 원미구 원미동 1-10,37.49852357,126.7946906,경기도 부천시청,032-625-3843,2025-11-07,3860000,경기도 부천시
부일초등학교1,경기도,부천시,경기도 부천시 원미구 원미로182번길 31,경기도 부천시 원미구 원미동 1-7,37.49852357,126.7946906,경기도 부천시청,032-625-3843,2025-11-07,3860000,경기도 부천시
부인초등학교,경기도,부천시,경기도 부천시 원미구 신상로 16,경기도 부천시 원미구 상동 473,37.4897918,126.7487411,경기도 부천시청,032-625-3843,2025-11-07,3860000,경기도 부천시
부원초등학교4,경기도,부천시,경기도 부천시 소사구 호현로447번길14,경기도 부천시 소사구 소사본동 143-26,37.4781892,126.7913921,경기도 부천시청,032-625-3843,2025-11-07,3860000,경기도 부천시
부원초등학교3,경기도,부천시,경기도 부천시 소사구 호현로447번길14,경기도 부천시 소사구 소사본동 144-8,37.4781892,126.7913921,경기도 부천시청,032-625-3843,2025-11-07,3860000,경기도 부천시
부원초등학교2,경기도,부천시,경기도 부천시 소사구 호현로447번길14,경기도 부천시 소사구 소사본동 290-27,37.4781892,126.7913921,경기도 부천시청,032-625-3843,2025-11-07,3860000,경기도 부천시
부원초등학교1,경기도,부천시,경기도 부천시 소사구 호현로447번길14,경기도 부천시 소사구 소사본동 290-27,37.4781892,126.7913921,경기도 부천시청,032-625-3843,2025-11-07,3860000,경기도 부천시
부명초등학교,경기도,부천시,경기도 부천시 원미구 조마루로 200,경기도 부천시 원미구 중동 1254,37.49782823,126.7652584,경기도 부천시청,032-625-3843,2025-11-07,3860000,경기도 부천시
부광초등학교2,경기도,부천시,경기도 부천시 원미구 석천로209번길 40,경기도 부천시 원미구 중동 1229-1,37.50703534,126.7621627,경기도 부천시청,032-625-3843,2025-11-07,3860000,경기도 부천시
부광초등학교1,경기도,부천시,경기도 부천시 원미구 석천로209번길 40,경기도 부천시 원미구 중동 1229,37.50703534,126.7621627,경기도 부천시청,032-625-3843,2025-11-07,3860000,경기도 부천시
복사초등학교2,경기도,부천시,경기도 부천시 소사구 소사로 96,경기도 부천시 소사구 소사본동 326-1,37.46711674,126.7991642,경기도 부천시청,032-625-3843,2025-11-07,3860000,경기도 부천시
복사초등학교1,경기도,부천시,경기도 부천시 소사구 소사로 96,경기도 부천시 소사구 소사본동 404,37.46711674,126.7991642,경기도 부천시청,032-625-3843,2025-11-07,3860000,경기도 부천시
범박초등학교2,경기도,부천시,경기도 부천시 소사구 범박로 1,경기도 부천시 소사구 범박동 155-4,37.47027535,126.8113777,경기도 부천시청,032-625-3843,2025-11-07,3860000,경기도 부천시
범박초등학교1,경기도,부천시,경기도 부천시 소사구 범박로 1,경기도 부천시 소사구 범박동 47-2,37.47027535,126.8113777,경기도 부천시청,032-625-3843,2025-11-07,3860000,경기도 부천시
동산초등학교,경기도,부천시,경기도 부천시 오정구 오정로251번길 50,경기도 부천시 오정구 오정동 727,37.53145027,126.7851807,경기도 부천시청,032-625-3843,2025-11-07,3860000,경기도 부천시
동곡초등학교2,경기도,부천시,경기도 부천시 원미구 안곡로 248,경기도 부천시 원미구 역곡동 24-67,37.49059097,126.8167923,경기도 부천시청,032-625-3843,2025-11-07,3860000,경기도 부천시
동곡초등학교1,경기도,부천시,경기도 부천시 원미구 안곡로 248,경기도 부천시 원미구 역곡동 227,37.49059097,126.8167923,경기도 부천시청,032-625-3843,2025-11-07,3860000,경기도 부천시
도원초등학교,경기도,부천시,경기도 부천시 소사구 마니로 13,경기도 부천시 소사구 심곡본동 819-1,37.47707264,126.7729533,경기도 부천시청,032-625-3843,2025-11-07,3860000,경기도 부천시
도당초등학교3,경기도,부천시,경기도 부천시 원미구 삼작로268번길 21,경기도 부천시 원미구 도당동 109,37.51883136,126.7920021,경기도 부천시청,032-625-3843,2025-11-07,3860000,경기도 부천시
도당초등학교2,경기도,부천시,경기도 부천시 원미구 삼작로268번길 21,경기도 부천시 원미구 도당동 4-8,37.51883136,126.7920021,경기도 부천시청,032-625-3843,2025-11-07,3860000,경기도 부천시
도당초등학교1,경기도,부천시,경기도 부천시 원미구 삼작로268번길 21,경기도 부천시 원미구 도당동 201,37.51883136,126.7920021,경기도 부천시청,032-625-3843,2025-11-07,3860000,경기도 부천시
까치울초등학교2,경기도,부천시,경기도 부천시 오정구 역곡로324번길 14,경기도 부천시 오정구 작동 122-3,37.51376391,126.8141972,경기도 부천시청,032-625-3843,2025-11-07,3860000,경기도 부천시
까치울초등학교1,경기도,부천시,경기도 부천시 오정구 역곡로324번길 14,경기도 부천시 오정구 작동 122-3,37.51376391,126.8141972,경기도 부천시청,032-625-3843,2025-11-07,3860000,경기도 부천시
고강초등학교2,경기도,부천시,경기도 부천시 오정구 역곡로482번길 57,경기도 부천시 오정구 고강동 507,37.52727037,126.820188,경기도 부천시청,032-625-3843,2025-11-07,3860000,경기도 부천시
고강초등학교1,경기도,부천시,경기도 부천시 오정구 역곡로482번길 57,경기도 부천시 오정구 고강동 492,37.52727037,126.820188,경기도 부천시청,032-625-3843,2025-11-07,3860000,경기도 부천시
계남초등학교3,경기도,부천시,경기도 부천시 원미구 조마루로 255,경기도 부천시 원미구 중동 1180-1,37.49897618,126.7721066,경기도 부천시청,032-625-3843,2025-11-07,3860000,경기도 부천시
계남초등학교2,경기도,부천시,경기도 부천시 원미구 조마루로 255,경기도 부천시 원미구 중동 1260-1,37.49897618,126.7721066,경기도 부천시청,032-625-3843,2025-11-07,3860000,경기도 부천시
계남초등학교1,경기도,부천시,경기도 부천시 원미구 조마루로 255,경기도 부천시 원미구 중동 1260-1,37.49897618,126.7721066,경기도 부천시청,032-625-3843,2025-11-07,3860000,경기도 부천시
토현초등학교,부산광역시,연제구,부산광역시 연제구 토현로 48,부산광역시 연제구 연산동 2219-1,35.18129174,129.1117661,부산광역시 연제구청,051-665-4554,2025-11-06,3370000,부산광역시 연제구
과정초등학교,부산광역시,연제구,부산광역시 연제구 고분로 246,부산광역시 연제구 연산동 482-5,35.18436396,129.1090922,부산광역시 연제구청,051-665-4554,2025-11-06,3370000,부산광역시 연제구
연천초등학교,부산광역시,연제구,부산광역시 연제구 과정로225번길 46,부산광역시 연제구 연산동 378-11,35.18621999,129.1004919,부산광역시 연제구청,051-665-4554,2025-11-06,3370000,부산광역시 연제구
연일초등학교,부산광역시,연제구,부산광역시 연제구 고분로 127,부산광역시 연제구 연산동 374-4,35.18587667,129.0963841,부산광역시 연제구청,051-665-4554,2025-11-06,3370000,부산광역시 연제구
연동초등학교,부산광역시,연제구,부산광역시 연제구 고분로56번길 40,부산광역시 연제구 연산동 799,35.18393246,129.0884679,부산광역시 연제구청,051-665-4554,2025-11-06,3370000,부산광역시 연제구
동명초등학교,부산광역시,연제구,부산광역시 연제구 쌍미천로44번길 2,부산광역시 연제구 연산동 2145-21,35.17698481,129.0897228,부산광역시 연제구청,051-665-4554,2025-11-06,3370000,부산광역시 연제구
연미초등학교,부산광역시,연제구,부산광역시 연제구 금련로38번길 84,부산광역시 연제구 연산동 1824-60,35.17070549,129.0921122,부산광역시 연제구청,051-665-4554,2025-11-06,3370000,부산광역시 연제구
연산초등학교,부산광역시,연제구,부산광역시 연제구 월드컵대로 41,부산광역시 연제구 연산동 774-1,35.17826118,129.0841247,부산광역시 연제구청,051-665-4554,2025-11-06,3370000,부산광역시 연제구
연제초등학교,부산광역시,연제구,부산광역시 연제구 중앙대로1065번길 14,부산광역시 연제구 연산동 1300,35.18405401,129.0778742,부산광역시 연제구청,051-665-4554,2025-11-06,3370000,부산광역시 연제구
연신초등학교,부산광역시,연제구,부산광역시 연제구 신금로23번길 30,부산광역시 연제구 연산동 302-1,35.19248231,129.0931595,부산광역시 연제구청,051-665-4554,2025-11-06,3370000,부산광역시 연제구
연서초등학교,부산광역시,연제구,부산광역시 연제구 거제천로270번길 30,부산광역시 연제구 연산동 583-3,35.19095316,129.0866023,부산광역시 연제구청,051-665-4554,2025-11-06,3370000,부산광역시 연제구
거제초등학교,부산광역시,연제구,부산광역시 연제구 해맞이로 39,부산광역시 연제구 거제동 676-152,35.17807396,129.0675717,부산광역시 연제구청,051-665-4554,2025-11-06,3370000,부산광역시 연제구
창신초등학교,부산광역시,연제구,부산광역시 연제구 종합운동장로12번길 15,부산광역시 연제구 거제동 897-3,35.19281291,129.0658519,부산광역시 연제구청,051-665-4554,2025-11-06,3370000,부산광역시 연제구
남문초등학교,부산광역시,연제구,부산광역시 연제구법원북로 23,부산광역시 연제구 거제동 1474,35.19423483,129.0695559,부산광역시 연제구청,051-665-4554,2025-11-06,3370000,부산광역시 연제구
부산교육대학교 부설초등학교,부산광역시,연제구,부산광역시 연제구 교대로 48,부산광역시 연제구 거제동 322-1,35.19392436,129.0755414,부산광역시 연제구청,051-665-4554,2025-11-06,3370000,부산광역시 연제구
거학초등학교,부산광역시,연제구,부산광역시 연제구 교대로24번길 36,부산광역시 연제구 거제동 240,35.19747831,129.0768246,부산광역시 연제구청,051-665-4554,2025-11-06,3370000,부산광역시 연제구
수성초등학교 횡단보도 옐로카펫,부산광역시,동구,부산광역시 동구 망양로 807,부산광역시 동구 수정동 488-3,35.134538,129.0427196,부산광역시 동구청,051-440-4554,2025-11-24,3270000,부산광역시 동구
동일중앙초등학교 횡단보도 옐로카펫,부산광역시,동구,부산광역시 동구 구봉로 46,부산광역시 동구 수정동 1073-1,35.12451406,129.036772,부산광역시 동구청,051-440-4554,2025-11-24,3270000,부산광역시 동구
초량초등학교 횡단보도 옐로카펫,부산광역시,동구,부산광역시 동구 초량상로 49,부산광역시 동구 초량동 994-13,35.11571241,129.0363325,부산광역시 동구청,051-440-4554,2025-11-24,3270000,부산광역시 동구
범일초등학교 횡단보도 옐로카펫,부산광역시,동구,부산광역시 동구 증산서로 55,부산광역시 동구 범일동 1411-3,35.13957208,129.0496524,부산광역시 동구청,051-440-4554,2025-11-24,3270000,부산광역시 동구
수정초등학교 정문 횡단보도 옐로카펫,부산광역시,동구,부산광역시 동구 진성로 29,부산광역시 동구 수정동 464-2,35.13126429,129.046761,부산광역시 동구청,051-440-4554,2025-11-24,3270000,부산광역시 동구
봉래초등학교,서울특별시,중구,서울특별시 중구 손기정로73,서울특별시 중구 만리동2가 2,37.555694,126.963485,서울특별시 중구청 교통행정과,02-3396-6212,2025-12-01,3010000,서울특별시 중구
서울시청직장어린이집,서울특별시,중구,서울특별시 중구 덕수궁길15,서울특별시 중구 서소문동 37,37.56455419,126.9756136,서울특별시 중구청 교통행정과,02-3396-6212,2025-12-01,3010000,서울특별시 중구
신일유치원,서울특별시,중구,서울특별시 중구 동호로10길 27,서울특별시 중구 신당동 347-298,37.55539072,127.011863,서울특별시 중구청 교통행정과,02-3396-6212,2025-12-01,3010000,서울특별시 중구
흥인초등학교,서울특별시,중구,서울특별시 중구 청구로6길 11,서울특별시 중구 신당동 292-66,37.56087001,127.0145555,서울특별시 중구청 교통행정과,02-3396-6212,2025-12-01,3010000,서울특별시 중구
충무초등학교,서울특별시,중구,서울특별시 중구 퇴계로50길 13,서울특별시 중구 장충동2가 173-7,37.56194948,127.0012351,서울특별시 중구청 교통행정과,02-3396-6212,2025-12-01,3010000,서울특별시 중구
청구초등학교,서울특별시,중구,서울특별시 중구 다산로170,서울특별시 중구 신당동 330-2,37.55911668,127.0137244,서울특별시 중구청 교통행정과,02-3396-6212,2025-12-01,3010000,서울특별시 중구
신당초등학교,서울특별시,중구,서울특별시 중구 난계로141,서울특별시 중구 신당동 161-2,37.56362621,127.0236731,서울특별시 중구청 교통행정과,02-3396-6212,2025-12-01,3010000,서울특별시 중구
남산초등학교,서울특별시,중구,서울특별시 중구 퇴계로22길 17,서울특별시 중구 남산동2가 2,37.55978374,126.9867767,서울특별시 중구청 교통행정과,02-3396-6212,2025-12-01,3010000,서울특별시 중구
광희초등학교,서울특별시,중구,서울특별시 중구 다산로269,서울특별시 중구 신당동 254-16,37.56729928,127.0156879,서울특별시 중구청 교통행정과,02-3396-6212,2025-12-01,3010000,서울특별시 중구
옥포초등학교,경상남도,거제시,경상남도 거제시 옥포로13길 12 (옥포동) 옥포초등학교,경상남도 거제시 옥포동 539-1 옥포초등학교,34.89234918,128.6897924,경상남도 거제시청,055-639-4494,2025-12-04,5370000,경상남도 거제시
장목초등학교,경상남도,거제시,경상남도 거제시 거제북로 1220 장목초등학교,경상남도 거제시 장목면 장목리 325-1 장목초등학교,34.9921449,128.6819596,경상남도 거제시청,055-639-4494,2025-12-04,5370000,경상남도 거제시
거제애광학교,경상남도,거제시,경상남도 거제시 거제대로 3063 (장승포동) 거제도애광원,경상남도 거제시 장승포동 521-4 거제도애광원,34.86774812,128.7214318,경상남도 거제시청,055-639-4494,2025-12-04,5370000,경상남도 거제시
하청초등학교,경상남도,거제시,경상남도 거제시 하청로 22 하청초등학교,경상남도 거제시 하청면 하청리 661-3 하청초등학교,34.95583445,128.6552508,경상남도 거제시청,055-639-4494,2025-12-04,5370000,경상남도 거제시
창호초등학교,경상남도,거제시,경상남도 거제시 가조로 1281-16 창호초등학교,경상남도 거제시 사등면 창호리 761 창호초등학교,34.95550622,128.520494,경상남도 거제시청,055-639-4494,2025-12-04,5370000,경상남도 거제시
오량초등학교,경상남도,거제시,경상남도 거제시 거제남서로 5405 오량초등학교,경상남도 거제시 사등면 덕호리 14-1 오량초등학교,34.88655729,128.4822309,경상남도 거제시청,055-639-4494,2025-12-04,5370000,경상남도 거제시
연초초등학교,경상남도,거제시,경상남도 거제시 거제대로 4280 연초초등학교,경상남도 거제시 연초면 죽토리 1131 연초초등학교,34.91207574,128.6520643,경상남도 거제시청,055-639-4494,2025-12-04,5370000,경상남도 거제시
아주초등학교,경상남도,거제시,경상남도 거제시 탑곡로4길 24 (아주동) 아주초등학교,경상남도 거제시 아주동 352-4 아주초등학교,34.86446676,128.6923575,경상남도 거제시청,055-639-4494,2025-12-04,5370000,경상남도 거제시
숭덕초등학교,경상남도,거제시,경상남도 거제시 거제남서로 4720 숭덕초등학교,경상남도 거제시 둔덕면 술역리 94 숭덕초등학교,34.83649439,128.4964783,경상남도 거제시청,055-639-4494,2025-12-04,5370000,경상남도 거제시
국산초등학교,경상남도,거제시,경상남도 거제시 국산1길 2 (옥포동) 국산초등학교,경상남도 거제시 옥포동 919 국산초등학교,34.89669905,128.6940575,경상남도 거제시청,055-639-4494,2025-12-04,5370000,경상남도 거제시
거제초등학교,경상남도,거제시,경상남도 거제시 읍내로2길 20 거제초등학교,경상남도 거제시 거제면 동상리 415 거제초등학교,34.85083245,128.5911969,경상남도 거제시청,055-639-4494,2025-12-04,5370000,경상남도 거제시
양정초등학교,경상남도,거제시,경상남도 거제시 양정2길 15 (양정동) 양정초등학교,경상남도 거제시 양정동 90-2 양정초등학교,34.87173985,128.6512355,경상남도 거제시청,055-639-4494,2025-12-04,5370000,경상남도 거제시
성미유치원,경상남도,거제시,경상남도 거제시 거제중앙로19길 18 (고현동) 성미유치원,경상남도 거제시 고현동 755-7 고현천주교회 성미유치원,34.8853743,128.6224327,경상남도 거제시청,055-639-4494,2025-12-04,5370000,경상남도 거제시
고현유치원,경상남도,거제시,경상남도 거제시 계룡로11길 15 (고현동) 고현유치원,경상남도 거제시 고현동 574 대한예수교장로회복지선교회 고현유치원,34.88237934,128.6192783,경상남도 거제시청,055-639-4494,2025-12-04,5370000,경상남도 거제시
거제유치원,경상남도,거제시,경상남도 거제시 국산로 147 (옥포동) 거제유치원,경상남도 거제시 옥포동 1118-31 거제유치원,34.89916207,128.6929368,경상남도 거제시청,055-639-4494,2025-12-04,5370000,경상남도 거제시
오비초등학교,경상남도,거제시,경상남도 거제시 오비5길 21 오비초등학교,경상남도 거제시 연초면 오비리 657-1 오비초등학교,34.92231927,128.6219979,경상남도 거제시청,055-639-4494,2025-12-04,5370000,경상남도 거제시
일운초등학교,경상남도,거제시,경상남도 거제시 지세포로 74 일운초등학교,경상남도 거제시 일운면 지세포리 745-1 일운초등학교,34.82838175,128.7057331,경상남도 거제시청,055-639-4494,2025-12-04,5370000,경상남도 거제시
진목초등학교,경상남도,거제시,경상남도 거제시 진목1길 101 (옥포동) 진목초등학교,경상남도 거제시 옥포동 1272-3 진목초등학교,34.90163707,128.6840575,경상남도 거제시청,055-639-4494,2025-12-04,5370000,경상남도 거제시
장승포초등학교,경상남도,거제시,경상남도 거제시 신부로1길 19 (장승포동) 장승포초등학교,경상남도 거제시 장승포동 319 장승포초등학교,34.86987849,128.7288769,경상남도 거제시청,055-639-4494,2025-12-04,5370000,경상남도 거제시
마전초등학교,경상남도,거제시,경상남도 거제시 마전2길 3-4 (장승포동) 마전초등학교,경상남도 거제시 장승포동 613 마전초등학교,34.86000787,128.7203649,경상남도 거제시청,055-639-4494,2025-12-04,5370000,경상남도 거제시
양지초등학교,경상남도,거제시,경상남도 거제시 장평1로 170 (장평동) 양지초등학교,경상남도 거제시 장평동 665-3 양지초등학교,34.89155773,128.6026004,경상남도 거제시청,055-639-4494,2025-12-04,5370000,경상남도 거제시
용소초등학교,경상남도,거제시,경상남도 거제시 용소1길 35-5 용소초등학교,경상남도 거제시 아주동 산40-1번지,34.87393193,128.6872037,경상남도 거제시청,055-639-4494,2025-12-04,5370000,경상남도 거제시
능포초등학교,경상남도,거제시,경상남도 거제시 능포로 208 (능포동) 능포초등학교,경상남도 거제시 능포동 440 능포초등학교,34.88097109,128.7371196,경상남도 거제시청,055-639-4494,2025-12-04,5370000,경상남도 거제시
장평초등학교,경상남도,거제시,경상남도 거제시 장평1로 116 (장평동) 장평초등학교,경상남도 거제시 장평동 348 장평초등학교,34.89369665,128.6080243,경상남도 거제시청,055-639-4494,2025-12-04,5370000,경상남도 거제시
계룡초등학교,경상남도,거제시,경상남도 거제시 거제중앙로 1821-7 (고현동) 계룡초등학교,경상남도 거제시 고현동 164 계룡초등학교,34.88110136,128.6249691,경상남도 거제시청,055-639-4494,2025-12-04,5370000,경상남도 거제시
거제국제외국인학교,경상남도,거제시,경상남도 거제시 서간도길 9-8 (옥포동) 거제국제외국인학교,경상남도 거제시 옥포동 309 거제국제외국인학교,34.88822705,128.6900804,경상남도 거제시청,055-639-4494,2025-12-04,5370000,경상남도 거제시
신현초등학교,경상남도,거제시,경상남도 거제시 서문로1길 7 (고현동) 신현초등학교,경상남도 거제시 고현동 931-34 신현초등학교,34.88805947,128.616487,경상남도 거제시청,055-639-4494,2025-12-04,5370000,경상남도 거제시
동부초등학교,경상남도,거제시,경상남도 거제시 동부로 27 동부초등학교,경상남도 거제시 동부면 산양리 295-2 동부초등학교,34.82100554,128.6097639,경상남도 거제시청,055-639-4494,2025-12-04,5370000,경상남도 거제시
상동초등학교,경상남도,거제시,경상남도 거제시 상동5길 75-41 (상동동) 상동초등학교,경상남도 거제시 상동동 54 거제상동초등학교,34.86188618,128.6339045,경상남도 거제시청,055-639-4494,2025-12-04,5370000,경상남도 거제시
세종유치원,경상남도,거제시,경상남도 거제시 문동폭포길 17 (문동동) 세종유치원,경상남도 거제시 문동동 135-2 세종유치원,34.85570133,128.6513936,경상남도 거제시청,055-639-4494,2025-12-04,5370000,경상남도 거제시
중앙초등학교,경상남도,거제시,경상남도 거제시 중곡로2길 45 (고현동) 거제중앙초등학교,경상남도 거제시 고현동 1057 거제중앙초등학교,34.89568982,128.6347073,경상남도 거제시청,055-639-4494,2025-12-04,5370000,경상남도 거제시
고현초등학교,경상남도,거제시,경상남도 거제시 계룡로 25 (상동동) 고현초등학교,경상남도 거제시 상동동 497 거제고현초등학교,34.87372391,128.6288323,경상남도 거제시청,055-639-4494,2025-12-04,5370000,경상남도 거제시
내곡초등학교,경상남도,거제시,경상남도 거제시 아주2로 112 (아주동) 내곡초등학교,경상남도 거제시 아주동 1478 내곡초등학교,34.87081922,128.6785655,경상남도 거제시청,055-639-4494,2025-12-04,5370000,경상남도 거제시
제산초등학교,경상남도,거제시,경상남도 거제시 제산로 70 (양정동) 제산초등학교,경상남도 거제시 양정동 818 제산초등학교,34.88697707,128.6419328,경상남도 거제시청,055-639-4494,2025-12-04,5370000,경상남도 거제시
삼룡초등학교,경상남도,거제시,경상남도 거제시 거제중앙로 1548 (문동동) 삼룡초등학교,경상남도 거제시 문동동 601 삼룡초등학교,34.86193346,128.6441424,경상남도 거제시청,055-639-4494,2025-12-04,5370000,경상남도 거제시
운천초등학교,경기도,오산시,경기도 오산시 운암로,경기도 오산시 부산동 806,37.15076676,127.0911749,경기도 오산시청,031-8036-6798,2025-11-28,4000000,경기도 오산시
운암초등학교,경기도,오산시,경기도 오산시 운천로,경기도 오산시 내삼미동 903-1,37.17127405,127.065524,경기도 오산시청,031-8036-6798,2025-11-28,4000000,경기도 오산시
운산초등학교,경기도,오산시,경기도 오산시 운천로,경기도 오산시 금암동 504,37.17746817,127.0525422,경기도 오산시청,031-8036-6798,2025-11-28,4000000,경기도 오산시
원일초등학교,경기도,오산시,경기도 오산시 오산로 132번길,경기도 오산시 양산동 680,37.19626343,127.0327518,경기도 오산시청,031-8036-6798,2025-11-28,4000000,경기도 오산시
원당초등학교,경기도,오산시,경기도 오산시 원당로,경기도 오산시 금암동 547,37.17330154,127.0451226,경기도 오산시청,031-8036-6798,2025-11-28,4000000,경기도 오산시
대원초등학교,경기도,오산시,경기도 오산시 경기대로,경기도 오산시 금암동 546-2,37.17772794,127.0436954,경기도 오산시청,031-8036-6798,2025-11-28,4000000,경기도 오산시
고현초등학교,경기도,오산시,경기도 오산시 청호로,경기도 오산시 수청동 17-1,37.16427584,127.0678462,경기도 오산시청,031-8036-6798,2025-11-28,4000000,경기도 오산시
오산초등학교,경기도,오산시,경기도 오산시 가수로,경기도 오산시 원동 810,37.13444838,127.069112,경기도 오산시청,031-8036-6798,2025-11-28,4000000,경기도 오산시
수청초등학교,경기도,오산시,경기도 오산시 오산대역로,경기도 오산시 부산동 785,37.15608682,127.0783897,경기도 오산시청,031-8036-6798,2025-11-28,4000000,경기도 오산시
성호초등학교,경기도,오산시,경기도 오산시 성호새싹길,경기도 오산시 원동 824,37.144211,127.0755031,경기도 오산시청,031-8036-6798,2025-11-28,4000000,경기도 오산시
성산초등학교,경기도,오산시,경기도 오산시 성호대로,경기도 오산시 오산동 937,37.15127166,127.0745862,경기도 오산시청,031-8036-6798,2025-11-28,4000000,경기도 오산시
삼미초등학교,경기도,오산시,경기도 오산시 북삼미로,경기도 오산시 원동 854,37.13958063,127.0719445,경기도 오산시청,031-8036-6798,2025-11-28,4000000,경기도 오산시
매홀초등학교,경기도,오산시,경기도 오산시 청학로 173번길,경기도 오산시 원동 914,37.14146251,127.0913622,경기도 오산시청,031-8036-6798,2025-11-28,4000000,경기도 오산시
대호초등학교,경기도,오산시,경기도 오산시 궐리사로,경기도 오산시 갈곶동 225-1,37.12888629,127.0703373,경기도 오산시청,031-8036-6798,2025-11-28,4000000,경기도 오산시
광성초등학교,경기도,오산시,경기도 오산시 수목원로,경기도 오산시 청호동 339,37.13170382,127.0847003,경기도 오산시청,031-8036-6798,2025-11-28,4000000,경기도 오산시
가수초등학교,경기도,오산시,경기도 오산시 가수로,경기도 오산시 가수동 13-4,37.14661136,127.0491785,경기도 오산시청,031-8036-6798,2025-11-28,4000000,경기도 오산시
세마초등학교,경기도,오산시,경기도 오산시 세마문학동로,경기도 오산시 수청동 604,37.17025682,127.0595494,경기도 오산시청,031-8036-6798,2025-11-28,4000000,경기도 오산시
다온초등학교,경기도,오산시,경기도 오산시 부산중앙로,경기도 오산시 오산동 890,37.15130161,127.0736985,경기도 오산시청,031-8036-6798,2025-11-28,4000000,경기도 오산시
세미초등학교,경기도,오산시,경기도 오산시 오산대역로,경기도 오산시 오산동 609-20,37.14930746,127.065271,경기도 오산시청,031-8036-6798,2025-11-28,4000000,경기도 오산시
필봉초등학교,경기도,오산시,경기도 오산시 수청로,경기도 오산시 외삼미동 648,37.19134991,127.0622022,경기도 오산시청,031-8036-6798,2025-11-28,4000000,경기도 오산시
양산초등학교,경기도,오산시,경기도 오산시 양산로,경기도 오산시 수청동 542,37.16341322,127.0607283,경기도 오산시청,031-8036-6798,2025-11-28,4000000,경기도 오산시
문시초등학교,경기도,오산시,경기도 오산시 여계산로,경기도 오산시 궐동 715,37.15895665,127.0595632,경기도 오산시청,031-8036-6798,2025-11-28,4000000,경기도 오산시
금암초등학교,경기도,오산시,경기도 오산시 수청로,경기도 오산시 세교동 629-1,37.18315724,127.0407341,경기도 오산시청,031-8036-6798,2025-11-28,4000000,경기도 오산시
화성초등학교,경기도,오산시,경기도 오산시 내삼미로,경기도 오산시 가수동 30-1,37.14745666,127.0468127,경기도 오산시청,031-8036-6798,2025-11-28,4000000,경기도 오산시
대구교육대학교 대구부설초,대구광역시,달서구,대구광역시 달서구 도원남로 19,대구광역시 달서구 도원동 1441-1,35.805915,128.532320,대구광역시 달서구청,053-667-3081,2025-12-05,3470000,대구광역시 달서구
성지초,대구광역시,달서구,대구광역시 달서구 새동네로27,대구광역시 달서구 용산동 412-4,35.85329006,128.5187152,대구광역시 달서구청,053-667-3081,2025-12-05,3470000,대구광역시 달서구
장동초,대구광역시,달서구,대구광역시 달서구 달구벌대로304길 112,대구광역시 달서구 장기동 533-4,35.84478484,128.5317635,대구광역시 달서구청,053-667-3081,2025-12-05,3470000,대구광역시 달서구
신월초,대구광역시,달서구,대구광역시 달서구 조암남로 100,대구광역시 달서구 월성동 1351,35.82059631,128.5224969,대구광역시 달서구청,053-667-3081,2025-12-05,3470000,대구광역시 달서구
남송초,대구광역시,달서구,대구광역시 달서구 송현로 192,대구광역시 달서구 본동 275-1,35.83490543,128.5453631,대구광역시 달서구청,053-667-3081,2025-12-05,3470000,대구광역시 달서구
내당초,대구광역시,달서구,대구광역시 달서구 명덕로22-9,대구광역시 달서구 두류동1202-1,35.86063851,128.5723871,대구광역시 달서구청,053-667-3081,2025-12-05,3470000,대구광역시 달서구
신당초,대구광역시,달서구,대구광역시 달서구 서당로 14,대구광역시 달서구 신당동 1844-2,35.85329967,128.496288,대구광역시 달서구청,053-667-3081,2025-12-05,3470000,대구광역시 달서구
월촌초,대구광역시,달서구,대구광역시 달서구 상인서로 60,대구광역시 달서구 상인동 1519,35.81635648,128.543274,대구광역시 달서구청,053-667-3081,2025-12-05,3470000,대구광역시 달서구
월곡초,대구광역시,달서구,대구광역시 달서구 상인로 40,대구광역시 달서구 상인동 1560,35.81216502,128.5492651,대구광역시 달서구청,053-667-3081,2025-12-05,3470000,대구광역시 달서구
송현초,대구광역시,달서구,대구광역시 달서구 송현로 128,대구광역시 달서구 송현동 1908,35.82868737,128.5448304,대구광역시 달서구청,053-667-3081,2025-12-05,3470000,대구광역시 달서구
대서초,대구광역시,달서구,대구광역시 달서구 송현로 9,대구광역시 달서구 상인동 860-1,35.82006524,128.5499599,대구광역시 달서구청,053-667-3081,2025-12-05,3470000,대구광역시 달서구
대곡초,대구광역시,달서구,대구광역시 달서구 도원남로 60,대구광역시 달서구 도원동 1458,35.8032986,128.5357486,대구광역시 달서구청,053-667-3081,2025-12-05,3470000,대구광역시 달서구
노전초,대구광역시,달서구,대구광역시 달서구 한실로 43,대구광역시 달서구 도원동 1428-3,35.80816336,128.5312014,대구광역시 달서구청,053-667-3081,2025-12-05,3470000,대구광역시 달서구
성당초,대구광역시,달서구,대구광역시 달서구 대명천로 118,대구광역시 달서구 본리동 166-1,35.840575,128.5472918,대구광역시 달서구청,053-667-3081,2025-12-05,3470000,대구광역시 달서구
장기초,대구광역시,달서구,대구광역시 달서구 장기로 280,대구광역시 달서구 장기동 813-3,35.84439346,128.5290637,대구광역시 달서구청,053-667-3081,2025-12-05,3470000,대구광역시 달서구
학산초,대구광역시,달서구,대구광역시 달서구 월성로 76,대구광역시 달서구 월성동 82-1,35.83110683,128.5260862,대구광역시 달서구청,053-667-3081,2025-12-05,3470000,대구광역시 달서구
한실초,대구광역시,달서구,대구광역시 달서구 한실로6길 108,대구광역시 달서구 대곡동 1106,35.79831438,128.5285689,대구광역시 달서구청,053-667-3081,2025-12-05,3470000,대구광역시 달서구
용전초,대구광역시,달서구,대구광역시 달서구 용산로 260,대구광역시 달서구 용산동 913,35.86109075,128.5312555,대구광역시 달서구청,053-667-3081,2025-12-05,3470000,대구광역시 달서구
성산초,대구광역시,달서구,대구광역시 달서구 선원남로 173,대구광역시 달서구 용산동 419-4,35.85789855,128.5189229,대구광역시 달서구청,053-667-3081,2025-12-05,3470000,대구광역시 달서구
송일초,대구광역시,달서구,대구광역시 달서구 학산로2길 38,대구광역시 달서구 월성동 500-3,35.82411883,128.5328131,대구광역시 달서구청,053-667-3081,2025-12-05,3470000,대구광역시 달서구
월암초,대구광역시,달서구,대구광역시 달서구 조암로6길 55,대구광역시 달서구 월성동 755,35.828572,128.5217032,대구광역시 달서구청,053-667-3081,2025-12-05,3470000,대구광역시 달서구
조암초,대구광역시,달서구,대구광역시 달서구 조암로5길 19,대구광역시 달서구 월성동 572,35.82408224,128.5284353,대구광역시 달서구청,053-667-3081,2025-12-05,3470000,대구광역시 달서구
이곡초,대구광역시,달서구,대구광역시 달서구 선원남로 120,대구광역시 달서구 이곡동 1304-4,35.85684832,128.5137344,대구광역시 달서구청,053-667-3081,2025-12-05,3470000,대구광역시 달서구
성서초,대구광역시,달서구,대구광역시 달서구 달구벌대로 1339,대구광역시 달서구 이곡동 690,35.85196007,128.5144445,대구광역시 달서구청,053-667-3081,2025-12-05,3470000,대구광역시 달서구
본리초,대구광역시,달서구,대구광역시 달서구 장기로 198,대구광역시 달서구 감삼동 338,35.84457103,128.5386403,대구광역시 달서구청,053-667-3081,2025-12-05,3470000,대구광역시 달서구
호산초,대구광역시,달서구,대구광역시 달서구 달서대로109길 116,대구광역시 달서구 호산동 357-57,35.84907047,128.4790049,대구광역시 달서구청,053-667-3081,2025-12-05,3470000,대구광역시 달서구
월배초,대구광역시,달서구,대구광역시 달서구 월배로 131,대구광역시 달서구 진천동 57-1,35.81642334,128.5283129,대구광역시 달서구청,053-667-3081,2025-12-05,3470000,대구광역시 달서구
와룡초,대구광역시,달서구,대구광역시 달서구 선원남로 22,대구광역시 달서구 이곡동 1191-1,35.85706992,128.5018556,대구광역시 달서구청,053-667-3081,2025-12-05,3470000,대구광역시 달서구
성남초,대구광역시,달서구,대구광역시 달서구 성당로47길 35,대구광역시 달서구 두류동 812-1,35.85332922,128.5722902,대구광역시 달서구청,053-667-3081,2025-12-05,3470000,대구광역시 달서구
대진초,대구광역시,달서구,대구광역시 달서구 상화로 70,대구광역시 달서구 대곡동 1025,35.80662752,128.5217528,대구광역시 달서구청,053-667-3081,2025-12-05,3470000,대구광역시 달서구
희성초등학교,경기도,안양시,경기도 안양시 동안구 학의로 86(비산동),경기도 안양시 동안구 비산동 1101-1,37.39836601,126.9487102,경기도 안양시청,031-8045-5328,2025-12-08,3830000,경기도 안양시
화창초등학교2,경기도,안양시,경기도 안양시 만안구 양화로 217번길 30(석수동),경기도 안양시 만안구 석수동 348-7,37.41212653,126.9035094,경기도 안양시청,031-8045-5328,2025-12-08,3830000,경기도 안양시
화창초등학교1,경기도,안양시,경기도 안양시 만안구 양화로 217번길 30(석수동),경기도 안양시 만안구 석수동 348-7,37.41212653,126.9035094,경기도 안양시청,031-8045-5328,2025-12-08,3830000,경기도 안양시
호성초등학교2,경기도,안양시,경기도 안양시 동안구 호성로 43-2(호계동),경기도 안양시 동안구 호계동 792-4,37.36625525,126.9630267,경기도 안양시청,031-8045-5328,2025-12-08,3830000,경기도 안양시
호성초등학교1,경기도,안양시,경기도 안양시 동안구 호성로 43-2(호계동),경기도 안양시 동안구 호계동 792-4,37.36625525,126.9630267,경기도 안양시청,031-8045-5328,2025-12-08,3830000,경기도 안양시
호계초등학교,경기도,안양시,경기도 안양시 동안구 경수대로 707번길 27(호계동),경기도 안양시 동안구 호계동 923-17,37.38427093,126.9501232,경기도 안양시청,031-8045-5328,2025-12-08,3830000,경기도 안양시
해오름초등학교,경기도,안양시,경기도 안양시 동안구 동편로 117(관양동),경기도 안양시 동안구 관양동 1671,37.41074576,126.9691932,경기도 안양시청,031-8045-5328,2025-12-08,3830000,경기도 안양시
중앙초등학교2,경기도,안양시,경기도 안양시 동안구 경수대로 883번길 11(비산동),경기도 안양시 동안구 비산동 423,37.39553138,126.9377855,경기도 안양시청,031-8045-5328,2025-12-08,3830000,경기도 안양시
중앙초등학교1,경기도,안양시,경기도 안양시 동안구 경수대로 883번길 11(비산동),경기도 안양시 동안구 비산동 423,37.39553138,126.9377855,경기도 안양시청,031-8045-5328,2025-12-08,3830000,경기도 안양시
정다운어린이집,경기도,안양시,경기도 안양시 만안구 안양로 532번길 13-8(석수동),경기도 안양시 만안구 석수동 266-19,37.41729999,126.907761,경기도 안양시청,031-8045-5328,2025-12-08,3830000,경기도 안양시
인덕원초등학교,경기도,안양시,경기도 안양시 동안구 관양로 311(관양동),경기도 안양시 동안구 관양동 210,37.39728426,126.9797534,경기도 안양시청,031-8045-5328,2025-12-08,3830000,경기도 안양시
예나유치원,경기도,안양시,경기도 안양시 만안구 태평로 134번길 39(안양동),경기도 안양시 만안구 안양동 90-1,37.40152708,126.9260961,경기도 안양시청,031-8045-5328,2025-12-08,3830000,경기도 안양시
연현초등학교,경기도,안양시,경기도 안양시 만안구 연현로1번길 55(석수동),경기도 안양시 만안구 석수동 485-16,37.4252211,126.9025062,경기도 안양시청,031-8045-5328,2025-12-08,3830000,경기도 안양시
양지초등학교,경기도,안양시,경기도 안양시 만안구 병목안로 130번길 69(안양동),경기도 안양시 만안구 안양동 977-1,37.39224518,126.9045522,경기도 안양시청,031-8045-5328,2025-12-08,3830000,경기도 안양시
안일초등학교,경기도,안양시,경기도 안양시 만안구 안양천서로 339(안양동),경기도 안양시 만안구 안양동 85-6,37.40408484,126.9223567,경기도 안양시청,031-8045-5328,2025-12-08,3830000,경기도 안양시
안양초등학교2,경기도,안양시,경기도 안양시 만안구 현충로 28번길 54(안양동),경기도 안양시 만안구 안양동 378-1,37.39417913,126.9279515,경기도 안양시청,031-8045-5328,2025-12-08,3830000,경기도 안양시
안양초등학교1,경기도,안양시,경기도 안양시 만안구 현충로 28번길 54(안양동),경기도 안양시 만안구 안양동 378-1,37.39417913,126.9279515,경기도 안양시청,031-8045-5328,2025-12-08,3830000,경기도 안양시
안양서초등학교,경기도,안양시,경기도 안양시 만안구 양화로 37번길 32(안양동),경기도 안양시 만안구 안양동 922,37.3969151,126.911039,경기도 안양시청,031-8045-5328,2025-12-08,3830000,경기도 안양시
안양동초등학교,경기도,안양시,경기도 안양시 동안구 임곡로 80번길 34(비산동),경기도 안양시 동안구 비산동 511-85,37.4074453,126.9359047,경기도 안양시청,031-8045-5328,2025-12-08,3830000,경기도 안양시
안양남초등학교2,경기도,안양시,경기도 안양시 동안구 흥안대로 275(호계동),경기도 안양시 동안구 호계동 1215,37.37987549,126.9685686,경기도 안양시청,031-8045-5328,2025-12-08,3830000,경기도 안양시
안양남초등학교1,경기도,안양시,경기도 안양시 동안구 흥안대로 275(호계동),경기도 안양시 동안구 호계동 1215,37.37987549,126.9685686,경기도 안양시청,031-8045-5328,2025-12-08,3830000,경기도 안양시
신안초등학교,경기도,안양시,경기도 안양시 만안구 능곡로 52(안양동),경기도 안양시 만안구 안양동 723-1,37.38960225,126.9148624,경기도 안양시청,031-8045-5328,2025-12-08,3830000,경기도 안양시
신기초등학교2,경기도,안양시,경기도 안양시 동안구 동안로 26(호계동),경기도 안양시 동안구 호계동 1056-5,37.3816429,126.9569687,경기도 안양시청,031-8045-5328,2025-12-08,3830000,경기도 안양시
신기초등학교1,경기도,안양시,경기도 안양시 동안구 동안로 26(호계동),경기도 안양시 동안구 호계동 1056-5,37.3816429,126.9569687,경기도 안양시청,031-8045-5328,2025-12-08,3830000,경기도 안양시
석수초등학교,경기도,안양시,경기도 안양시 만안구 석수로 110(석수동),경기도 안양시 만안구 석수동 655-75,37.40610427,126.9007563,경기도 안양시청,031-8045-5328,2025-12-08,3830000,경기도 안양시
삼성초등학교,경기도,안양시,경기도 안양시 만안구 경수대로 1240(석수동),경기도 안양시 만안구 석수동 167-4,37.41957898,126.9119847,경기도 안양시청,031-8045-5328,2025-12-08,3830000,경기도 안양시
삼봉초등학교,경기도,안양시,경기도 안양시 만안구 박달로 437번길 21(박달동),경기도 안양시 만안구 박달동 114-3,37.40291134,126.8991863,경기도 안양시청,031-8045-5328,2025-12-08,3830000,경기도 안양시
비산초등학교,경기도,안양시,경기도 안양시 동안구 운곡로 52(비산동),경기도 안양시 동안구 비산동 315,37.40526069,126.943703,경기도 안양시청,031-8045-5328,2025-12-08,3830000,경기도 안양시
부흥초등학교,경기도,안양시,경기도 안양시 동안구 달안로 37(비산동),경기도 안양시 동안구 비산동 1102-8,37.3947605,126.9465091,경기도 안양시청,031-8045-5328,2025-12-08,3830000,경기도 안양시
부림초등학교,경기도,안양시,경기도 안양시 동안구 달안로 161(관양동),경기도 안양시 동안구 관양동 1587-3,37.40034812,126.9600173,경기도 안양시청,031-8045-5328,2025-12-08,3830000,경기도 안양시
범계초등학교2,경기도,안양시,경기도 안양시 동안구 동안로 90(호계동),경기도 안양시 동안구 호계동 1052-1,37.38751871,126.9537811,경기도 안양시청,031-8045-5328,2025-12-08,3830000,경기도 안양시
범계초등학교1,경기도,안양시,경기도 안양시 동안구 동안로 90(호계동),경기도 안양시 동안구 호계동 1052-1,37.38751871,126.9537811,경기도 안양시청,031-8045-5328,2025-12-08,3830000,경기도 안양시
벌말초등학교,경기도,안양시,경기도 안양시 동안구 학의로 408번길 25(평촌동),경기도 안양시 동안구 평촌동 75-8,37.39383705,126.9808953,경기도 안양시청,031-8045-5328,2025-12-08,3830000,경기도 안양시
박달초등학교,경기도,안양시,경기도 안양시 만안구 삼봉로 38(박달동),경기도 안양시 만안구 박달동 128-7,37.4007784,126.9027858,경기도 안양시청,031-8045-5328,2025-12-08,3830000,경기도 안양시
민백초등학교2,경기도,안양시,경기도 안양시 동안구 부림로 22(평촌동),경기도 안양시 동안구 평촌동 933-1,37.38651687,126.9700228,경기도 안양시청,031-8045-5328,2025-12-08,3830000,경기도 안양시
민백초등학교1,경기도,안양시,경기도 안양시 동안구 부림로 22(평촌동),경기도 안양시 동안구 평촌동 933-1,37.38651687,126.9700228,경기도 안양시청,031-8045-5328,2025-12-08,3830000,경기도 안양시
명학초등학교,경기도,안양시,경기도 안양시 만안구 명학로 55(안양동),경기도 안양시 만안구 안양동 349-13,37.37997664,126.9344138,경기도 안양시청,031-8045-5328,2025-12-08,3830000,경기도 안양시
만안초등학교,경기도,안양시,경기도 안양시 만안구 안양로 384번길 13(안양동),경기도 안양시 만안구 안양동 848-1,37.40664496,126.9167372,경기도 안양시청,031-8045-5328,2025-12-08,3830000,경기도 안양시
동안초등학교,경기도,안양시,경기도 안양시 동안구 관평로 138번길 36(평촌동),경기도 안양시 동안구 평촌동 898-1,37.38956957,126.9649077,경기도 안양시청,031-8045-5328,2025-12-08,3830000,경기도 안양시
덕현초등학교,경기도,안양시,경기도 안양시 동안구 갈산로 34(호계동),경기도 안양시 동안구 호계동 1101,37.37549471,126.9623993,경기도 안양시청,031-8045-5328,2025-12-08,3830000,경기도 안양시
덕천초등학교,경기도,안양시,경기도 안양시 만안구 전파로 27(안양동),경기도 안양시 만안구 안양동 192-5,37.39206378,126.9359049,경기도 안양시청,031-8045-5328,2025-12-08,3830000,경기도 안양시
달안초등학교,경기도,안양시,경기도 안양시 동안구 동안로 178(비산동),경기도 안양시 동안구 비산동 1109-1,37.39460528,126.9500874,경기도 안양시청,031-8045-5328,2025-12-08,3830000,경기도 안양시
나눔초등학교,경기도,안양시,경기도 안양시 동안구 흥안대로 414번길 22(평촌동),경기도 안양시 동안구 평촌동 109-1,37.39057608,126.9755501,경기도 안양시청,031-8045-5328,2025-12-08,3830000,경기도 안양시
관양초등학교,경기도,안양시,경기도 안양시 동안구 관평로 336번길 23(관양동),경기도 안양시 동안구 관양동 1407,37.4067103,126.9602277,경기도 안양시청,031-8045-5328,2025-12-08,3830000,경기도 안양시
원동초등학교,경기도,오산시,경기도 오산시 오산로 132번길,경기도 오산시 지곶동 572,37.17076323,127.0282756,경기도 오산시청,031-8036-6798,2025-11-28,4000000,경기도 오산시
관악초등학교,경기도,안양시,경기도 안양시 동안구 일동로 201(관양동),경기도 안양시 동안구 관양동 367-2,37.40664855,126.9681914,경기도 안양시청,031-8045-5328,2025-12-08,3830000,경기도 안양시
시립죽전어린이집,경기도,용인시,경기도 용인시 수지구 죽전로254번길 2,경기도 용인시 수지구 죽전동 1375-1,37.332247,127.128331,경기도 용인시 수지구,031-6193-8351,2025-12-03,4050000,경기도 용인시
토월초등학교,경기도,용인시,경기도 용인시 수지구 수지로296번길 3,경기도 용인시 수지구 풍덕천동 698-1,37.324954,127.091798,경기도 용인시 수지구,031-6193-8351,2025-12-03,4050000,경기도 용인시
풍덕초등학교,경기도,용인시,경기도 용인시 수지구 수지로 367,경기도 용인시 수지구 풍덕천동 664-1,37.329922,127.095588,경기도 용인시 수지구,031-6193-8351,2025-12-03,4050000,경기도 용인시
수지초등학교,경기도,용인시,경기도 용인시 수지구 정평로13번길 30,경기도 용인시 수지구 풍덕천동 510,37.316709,127.085796,경기도 용인시 수지구,031-6193-8351,2025-12-03,4050000,경기도 용인시
풍천초등학교,경기도,용인시,경기도 용인시 수지구 진산로66번길 20,경기도 용인시 수지구 풍덕천동 1172,37.316025,127.096026,경기도 용인시 수지구,031-6193-8351,2025-12-03,4050000,경기도 용인시
신월초등학교,경기도,용인시,경기도 용인시 수지구 풍덕천로 86,경기도 용인시 수지구 풍덕천동 1097,37.320705,127.092994,경기도 용인시 수지구,031-6193-8351,2025-12-03,4050000,경기도 용인시
정평초등학교,경기도,용인시,경기도 용인시 수지구 정평로 64,경기도 용인시 수지구 풍덕천동 1058,37.320738,127.088796,경기도 용인시 수지구,031-6193-8351,2025-12-03,4050000,경기도 용인시
대현초등학교,경기도,용인시,경기도 용인시 수지구 용구대로2771번길 16,경기도 용인시 수지구 죽전동 869-1,37.333572,127.106958,경기도 용인시 수지구,031-6193-8351,2025-12-03,4050000,경기도 용인시
죽전초등학교,경기도,용인시,경기도 용인시 수지구 용구대로2772번길 15,경기도 용인시 수지구 죽전동 513-1,37.333538,127.110427,경기도 용인시 수지구,031-6193-8351,2025-12-03,4050000,경기도 용인시
신촌초등학교,경기도,용인시,경기도 용인시 수지구 죽전로27번길 14-19,경기도 용인시 수지구 죽전동 1299,37.322934,127.113848,경기도 용인시 수지구,031-6193-8351,2025-12-03,4050000,경기도 용인시
대지초등학교,경기도,용인시,경기도 용인시 수지구 대지로51번길 6,경기도 용인시 수지구 죽전동 313-3,37.329787,127.115959,경기도 용인시 수지구,031-6193-8351,2025-12-03,4050000,경기도 용인시
대덕초등학교,경기도,용인시,경기도 용인시 수지구 죽전로293번길 14,경기도 용인시 수지구 죽전동 1158,37.336502,127.125887,경기도 용인시 수지구,031-6193-8351,2025-12-03,4050000,경기도 용인시
대청초등학교,경기도,용인시,경기도 용인시 수지구 죽전로 276,경기도 용인시 수지구 죽전동 1389,37.334032,127.128856,경기도 용인시 수지구,031-6193-8351,2025-12-03,4050000,경기도 용인시
대일초등학교,경기도,용인시,경기도 용인시 수지구 푸른솔로 98,경기도 용인시 수지구 죽전동 1247,37.327682,127.118704,경기도 용인시 수지구,031-6193-8351,2025-12-03,4050000,경기도 용인시
현암초등학교,경기도,용인시,경기도 용인시 수지구 대지로 146,경기도 용인시 수지구 죽전동 1229,37.329069,127.124725,경기도 용인시 수지구,031-6193-8351,2025-12-03,4050000,경기도 용인시
신일초등학교,경기도,용인시,경기도 용인시 수지구 신봉2로48번길 28,경기도 용인시 수지구 신봉동 920,37.329074,127.077682,경기도 용인시 수지구,031-6193-8351,2025-12-03,4050000,경기도 용인시
홍천초등학교,경기도,용인시,경기도 용인시 수지구 신봉2로14번길 49,경기도 용인시 수지구 신봉동 910,37.326681,127.079992,경기도 용인시 수지구,031-6193-8351,2025-12-03,4050000,경기도 용인시
신리초등학교,경기도,용인시,경기도 용인시 수지구 신봉1로48번길 6,경기도 용인시 수지구 신봉동 882,37.322316,127.080562,경기도 용인시 수지구,031-6193-8351,2025-12-03,4050000,경기도 용인시
신봉초등학교,경기도,용인시,경기도 용인시 수지구 신봉2로 115,경기도 용인시 수지구 신봉동 952,37.329647,127.068167,경기도 용인시 수지구,031-6193-8351,2025-12-03,4050000,경기도 용인시
효자초등학교,경기도,용인시,경기도 용인시 수지구 성복1로 106-1,경기도 용인시 수지구 성복동 732,37.317147,127.067559,경기도 용인시 수지구,031-6193-8351,2025-12-03,4050000,경기도 용인시
성서초등학교,경기도,용인시,경기도 용인시 수지구 성복2로 210,경기도 용인시 수지구 성복동 772,37.320242,127.065174,경기도 용인시 수지구,031-6193-8351,2025-12-03,4050000,경기도 용인시
성복초등학교,경기도,용인시,경기도 용인시 수지구 성복2로78번길 52,경기도 용인시 수지구 신봉동 1-92,37.319343,127.078089,경기도 용인시 수지구,031-6193-8351,2025-12-03,4050000,경기도 용인시
심곡초등학교,경기도,용인시,경기도 용인시 수지구 심곡로 59,경기도 용인시 수지구 상현동 871,37.308919,127.079083,경기도 용인시 수지구,031-6193-8351,2025-12-03,4050000,경기도 용인시
소현초등학교,경기도,용인시,경기도 용인시 수지구 만현로133번길 78,경기도 용인시 수지구 상현동 854,37.301732,127.092515,경기도 용인시 수지구,031-6193-8351,2025-12-03,4050000,경기도 용인시
솔개초등학교,경기도,용인시,경기도 용인시 수지구 상현로 79,경기도 용인시 수지구 상현동 841,37.305609,127.081969,경기도 용인시 수지구,031-6193-8351,2025-12-03,4050000,경기도 용인시
서원초등학교,경기도,용인시,경기도 용인시 수지구 상현로 45,경기도 용인시 수지구 상현동 826,37.303487,127.078587,경기도 용인시 수지구,031-6193-8351,2025-12-03,4050000,경기도 용인시
상현초등학교,경기도,용인시,경기도 용인시 수지구 만현로67번길 23,경기도 용인시 수지구 상현동 53-3,37.308798,127.089704,경기도 용인시 수지구,031-6193-8351,2025-12-03,4050000,경기도 용인시
새빛초등학교,경기도,용인시,경기도 용인시 수지구 광교마을로 63,경기도 용인시 수지구 상현동 1126,37.298895,127.072687,경기도 용인시 수지구,031-6193-8351,2025-12-03,4050000,경기도 용인시
매봉초등학교,경기도,용인시,경기도 용인시 수지구 수지로 75-1,경기도 용인시 수지구 상현동 1172,37.310045,127.073301,경기도 용인시 수지구,031-6193-8351,2025-12-03,4050000,경기도 용인시
한빛초등학교,경기도,용인시,경기도 용인시 수지구 동천로153번길 23,경기도 용인시 수지구 동천동 933,37.334894,127.087757,경기도 용인시 수지구,031-6193-8351,2025-12-03,4050000,경기도 용인시
손곡초등학교,경기도,용인시,경기도 용인시 수지구 손곡로 68,경기도 용인시 수지구 동천동 867,37.336683,127.095193,경기도 용인시 수지구,031-6193-8351,2025-12-03,4050000,경기도 용인시
동천초등학교,경기도,용인시,경기도 용인시 수지구 고기로 71,경기도 용인시 수지구 동천동 154,37.344192,127.093888,경기도 용인시 수지구,031-6193-8351,2025-12-03,4050000,경기도 용인시
고기초등학교,경기도,용인시,경기도 용인시 수지구 고기로 385,경기도 용인시 수지구 고기동 172-1,37.358774,127.066309,경기도 용인시 수지구,031-6193-8351,2025-12-03,4050000,경기도 용인시
초롱유치원,경기도,용인시,경기도 용인시 기흥구 덕영대로2077번길 73,경기도 용인시 기흥구 영덕동 128-4,37.266267,127.091485,경기도 용인시 기흥구,031-6193-6352,2025-12-03,4050000,경기도 용인시
한얼초등학교(병설),경기도,용인시,경기도 용인시 기흥구 기흥역로58번길 57,경기도 용인시 기흥구 구갈동 674,37.27085176,127.1222794,경기도 용인시 기흥구,031-6193-6352,2025-12-03,4050000,경기도 용인시
중일초등학교(병설),경기도,용인시,경기도 용인시 기흥구 동백죽전대로527번길 36,경기도 용인시 기흥구 중동 1098,37.28545559,127.1434392,경기도 용인시 기흥구,031-6193-6352,2025-12-03,4050000,경기도 용인시
샘말초등학교(병설),경기도,용인시,경기도 용인시 기흥구 흥덕중앙로105번길 9,경기도 용인시 기흥구 영덕동 962,37.27688295,127.0783317,경기도 용인시 기흥구,031-6193-6352,2025-12-03,4050000,경기도 용인시
서농초등학교(병설),경기도,용인시,경기도 용인시 기흥구 서천동로21번길 5,경기도 용인시 기흥구 서천동 794,37.23900955,127.0769767,경기도 용인시 기흥구,031-6193-6352,2025-12-03,4050000,경기도 용인시
흥덕초등학교(병설),경기도,용인시,경기도 용인시 기흥구 흥덕1로62번길 26,경기도 용인시 기흥구 영덕동 1011,37.27220957,127.0717098,경기도 용인시 기흥구,031-6193-6352,2025-12-03,4050000,경기도 용인시
공세초등학교(병설),경기도,용인시,경기도 용인시 기흥구 탑실로 86-10,경기도 용인시 기흥구 공세동 693,37.23896048,127.1166351,경기도 용인시 기흥구,031-6193-6352,2025-12-03,4050000,경기도 용인시
석현초등학교(병설),경기도,용인시,경기도 용인시 기흥구 흥덕3로 42,경기도 용인시 기흥구 영덕동 1070,37.27266952,127.0833751,경기도 용인시 기흥구,031-6193-6352,2025-12-03,4050000,경기도 용인시
청덕초등학교(병설),경기도,용인시,경기도 용인시 기흥구 구성1로 61,경기도 용인시 기흥구 청덕동507,37.29432053,127.1495534,경기도 용인시 기흥구,031-6193-6352,2025-12-03,4050000,경기도 용인시
나산초등학교(병설),경기도,용인시,경기도 용인시 기흥구 한보라1로43번길 8,경기도 용인시 기흥구 보라동 613,37.25038563,127.109341,경기도 용인시 기흥구,031-6193-6352,2025-12-03,4050000,경기도 용인시
한일초등학교(병설),경기도,용인시,경기도 용인시 기흥구 한보라1로 145,경기도 용인시 기흥구 공세동 680,37.24312551,127.1069572,경기도 용인시 기흥구,031-6193-6352,2025-12-03,4050000,경기도 용인시
초당초등학교(병설),경기도,용인시,경기도 용인시 기흥구 동백중앙로 78,경기도 용인시 기흥구 중동 1010,37.26317454,127.1610345,경기도 용인시 기흥구,031-6193-6352,2025-12-03,4050000,경기도 용인시
석성초등학교(병설),경기도,용인시,경기도 용인시 기흥구 동백2로 53,경기도 용인시 기흥구 중동 955,37.27011086,127.1584254,경기도 용인시 기흥구,031-6193-6352,2025-12-03,4050000,경기도 용인시
동백초등학교,경기도,용인시,경기도 용인시 기흥구 동백평촌로 69,경기도 용인시 기흥구 동백동 658,37.28030758,127.1565412,경기도 용인시 기흥구,031-6193-6352,2025-12-03,4050000,경기도 용인시
백현초등학교(병설),경기도,용인시,경기도 용인시 기흥구 동백8로 108,경기도 용인시 기흥구 동백동 600,37.28320357,127.1620765,경기도 용인시 기흥구,031-6193-6352,2025-12-03,4050000,경기도 용인시
동막초등학교(병설),경기도,용인시,경기도 용인시 기흥구 동백8로 39,경기도 용인시 기흥구 동백동 576,37.2859114,127.1554644,경기도 용인시 기흥구,031-6193-6352,2025-12-03,4050000,경기도 용인시
성지초등학교(병설),경기도,용인시,경기도 용인시 기흥구 강남서로 38,경기도 용인시 기흥구 구갈동 575,37.27472288,127.1285244,경기도 용인시 기흥구,031-6193-6352,2025-12-03,4050000,경기도 용인시
지곡초등학교(병설),경기도,용인시,경기도 용인시 기흥구 사은로 274-45,경기도 용인시 기흥구 지곡동 703,37.25196047,127.1383916,경기도 용인시 기흥구,031-6193-6352,2025-12-03,4050000,경기도 용인시
독정초등학교(병설),경기도,용인시,경기도 용인시 기흥구 보정로 100,경기도 용인시 기흥구 보정동 1256,37.31859968,127.1163094,경기도 용인시 기흥구,031-6193-6352,2025-12-03,4050000,경기도 용인시
신릉초등학교(병설),경기도,용인시,경기도 용인시 기흥구 새천년로 53,경기도 용인시 기흥구 신갈동 686,37.29000756,127.1149673,경기도 용인시 기흥구,031-6193-6352,2025-12-03,4050000,경기도 용인시
언동초등학교(병설),경기도,용인시,경기도 용인시 기흥구 언남로 55,경기도 용인시 기흥구 언남동 132-10,37.29504926,127.1318084,경기도 용인시 기흥구,031-6193-6352,2025-12-03,4050000,경기도 용인시
서천초등학교(병설),경기도,용인시,경기도 용인시 기흥구 서그내로62번길 6,경기도 용인시 기흥구 서천동 282,37.24301133,127.0719092,경기도 용인시 기흥구,031-6193-6352,2025-12-03,4050000,경기도 용인시
보정초등학교(병설),경기도,용인시,경기도 용인시 기흥구 신촌로73번길 28,경기도 용인시 기흥구 보정동1299,37.30876035,127.1109311,경기도 용인시 기흥구,031-6193-6352,2025-12-03,4050000,경기도 용인시
언남초등학교(병설),경기도,용인시,경기도 용인시 기흥구 기흥로116번길 87,경기도 용인시 기흥구 언남동 498,37.28986974,127.1202486,경기도 용인시 기흥구,031-6193-6352,2025-12-03,4050000,경기도 용인시
갈곡초등학교(병설),경기도,용인시,경기도 용인시 기흥구 강남동로 61,경기도 용인시 기흥구 구갈동 601,37.27121287,127.1338433,경기도 용인시 기흥구,031-6193-6352,2025-12-03,4050000,경기도 용인시
지석초등학교(병설),경기도,용인시,경기도 용인시 기흥구 어정로 62-25,경기도 용인시 기흥구 상하동 435-8,37.2697415,127.1389663,경기도 용인시 기흥구,031-6193-6352,2025-12-03,4050000,경기도 용인시
나곡초등학교(병설),경기도,용인시,경기도 용인시 기흥구 사은로126번길 26,경기도 용인시 기흥구 보라동 554,37.25352893,127.1192107,경기도 용인시 기흥구,031-6193-6352,2025-12-03,4050000,경기도 용인시
상하초등학교(병설),경기도,용인시,경기도 용인시 기흥구 중부대로788번길 27,경기도 용인시 기흥구 상하동 674,37.25688642,127.1408568,경기도 용인시 기흥구,031-6193-6352,2025-12-03,4050000,경기도 용인시
교동초등학교(병설),경기도,용인시,경기도 용인시 기흥구 마북로 124-10,경기도 용인시 기흥구 마북동 618,37.30021582,127.1223143,경기도 용인시 기흥구,031-6193-6352,2025-12-03,4050000,경기도 용인시
청곡초등학교(병설),경기도,용인시,경기도 용인시 기흥구 덕영대로2077번길 52,경기도 용인시 기흥구 영덕동 20,37.26701897,127.0932757,경기도 용인시 기흥구,031-6193-6352,2025-12-03,4050000,경기도 용인시
관당초등학교,충청남도,보령시,충청남도 보령시 웅천읍 무창포로 309,충청남도 보령시 웅천읍 죽청리 121-4,36.24624557,126.5579522,충청남도 보령시,041-930-3981,2025-12-12,4510000,충청남도 보령시
이현초등학교(병설),경기도,용인시,경기도 용인시 기흥구 이현로 83,경기도 용인시 기흥구 보정동 1164,37.30995185,127.0930724,경기도 용인시 기흥구,031-6193-6352,2025-12-03,4050000,경기도 용인시
마성초등학교(병설),경기도,용인시,경기도 용인시 기흥구 용구대로2360번길 29,경기도 용인시 기흥구 마북동 635,37.29730649,127.1130229,경기도 용인시 기흥구,031-6193-6352,2025-12-03,4050000,경기도 용인시
관곡초등학교(병설),경기도,용인시,경기도 용인시 기흥구 관곡로 61,경기도 용인시 기흥구 구갈동 363,37.28307237,127.1136796,경기도 용인시 기흥구,031-6193-6352,2025-12-03,4050000,경기도 용인시
상갈초등학교(병설),경기도,용인시,경기도 용인시 기흥구 금화로58번길 17,경기도 용인시 기흥구 상갈동 462,37.2640138,127.1111642,경기도 용인시 기흥구,031-6193-6352,2025-12-03,4050000,경기도 용인시
산양초등학교,경기도,용인시,경기도 용인시 기흥구 산양로 2,경기도 용인시 기흥구 신갈동162,37.28356441,127.1087422,경기도 용인시 기흥구,031-6193-6352,2025-12-03,4050000,경기도 용인시
구갈초등학교(병설),경기도,용인시,경기도 용인시 기흥구 구갈로 36,경기도 용인시 기흥구 구갈동 397,37.27754342,127.1120463,경기도 용인시 기흥구,031-6193-6352,2025-12-03,4050000,경기도 용인시
보라초등학교(병설),경기도,용인시,경기도 용인시 기흥구 금화로105번길 33,경기도 용인시 기흥구 상갈동 51-1,37.26370106,127.1072486,경기도 용인시 기흥구,031-6193-6352,2025-12-03,4050000,경기도 용인시
기흥초등학교(병설),경기도,용인시,경기도 용인시 기흥구 공세로82번길 5,경기도 용인시 기흥구 공세동 200-3,37.23244812,127.1098495,경기도 용인시 기흥구,031-6193-6352,2025-12-03,4050000,경기도 용인시
신갈초등학교(병설),경기도,용인시,경기도 용인시 기흥구 신갈로 76,경기도 용인시 기흥구 신갈동 56,37.27347099,127.106551,경기도 용인시 기흥구,031-6193-6352,2025-12-03,4050000,경기도 용인시
어정초등학교(병설),경기도,용인시,경기도 용인시 기흥구 어정로 155,경기도 용인시 기흥구 중동 614-3,37.27661668,127.147285,경기도 용인시 기흥구,031-6193-6352,2025-12-03,4050000,경기도 용인시
구성초등학교(병설),경기도,용인시,경기도 용인시 기흥구 구성로 51,경기도 용인시 기흥구 마북동 333,37.29544699,127.1149696,경기도 용인시 기흥구,031-6193-6352,2025-12-03,4050000,경기도 용인시
고진초등학교,경기도,용인시,경기도 용인시 처인구 고림로 165-1,경기도 용인시 처인구 고림동 1020,37.2479499,127.2188935,경기도 용인시 처인구,031-6193-5395,2025-12-03,4050000,경기도 용인시
남곡초등학교,경기도,용인시,경기도 용인시 처인구 남사읍 한숲로 110,경기도 용인시 처인구 남사읍 완장리 953,37.1581104,127.1741574,경기도 용인시 처인구,031-6193-5395,2025-12-03,4050000,경기도 용인시
함박초등학교,경기도,용인시,경기도 용인시 처인구 명지로40번길 46,경기도 용인시 처인구 역북동 737,37.2331591,127.1836929,경기도 용인시 처인구,031-6193-5395,2025-12-03,4050000,경기도 용인시
둔전제일초등학교,경기도,용인시,경기도 용인시 처인구 포곡읍 포곡로141번길 28,경기도 용인시 처인구 포곡읍 둔전리 448,37.2731822,127.2188649,경기도 용인시 처인구,031-6193-5395,2025-12-03,4050000,경기도 용인시
삼가초등학교,경기도,용인시,경기도 용인시 처인구 중부대로1158번길 45,경기도 용인시 처인구 삼가동 555,37.2374399,127.1700424,경기도 용인시 처인구,031-6193-5395,2025-12-03,4050000,경기도 용인시
용인성산초등학교,경기도,용인시,경기도 용인시 처인구 백옥대로1362번길 41,경기도 용인시 처인구 유방동 317-2,37.2590777,127.2162905,경기도 용인시 처인구,031-6193-5395,2025-12-03,4050000,경기도 용인시
이동초등학교,경기도,용인시,경기도 용인시 처인구 이동읍 백옥대로587번길 22,경기도 용인시 처인구 이동읍 천리 1131,37.1902203,127.2042813,경기도 용인시 처인구,031-6193-5395,2025-12-03,4050000,경기도 용인시
둔전초등학교,경기도,용인시,경기도 용인시 처인구 포곡읍 포곡로118번길 61,경기도 용인시 처인구 포곡읍 둔전리 108-10,37.2682462,127.2246237,경기도 용인시 처인구,031-6193-5395,2025-12-03,4050000,경기도 용인시
고림초등학교,경기도,용인시,경기도 용인시 처인구 한터로152번길 22,경기도 용인시 처인구 고림동 340-2,37.2473803,127.2278934,경기도 용인시 처인구,031-6193-5395,2025-12-03,4050000,경기도 용인시
역북초등학교,경기도,용인시,경기도 용인시 처인구 명지로 15-30,경기도 용인시 처인구 김량장동 508-1,37.2351044,127.1920107,경기도 용인시 처인구,031-6193-5395,2025-12-03,4050000,경기도 용인시
한터초등학교,경기도,용인시,경기도 용인시 처인구 양지면 한터로571번길 4,경기도 용인시 처인구 양지면 대대리 577,37.2616829,127.2687782,경기도 용인시 처인구,031-6193-5395,2025-12-03,4050000,경기도 용인시
양지초등학교,경기도,용인시,경기도 용인시 처인구 양지면 교동로 30,경기도 용인시 처인구 양지면 양지리 350,37.2364467,127.2843304,경기도 용인시 처인구,031-6193-5395,2025-12-03,4050000,경기도 용인시
장평초등학교,경기도,용인시,경기도 용인시 처인구 백암면 한택로 446,경기도 용인시 처인구 백암면 장평리 658,37.1189216,127.3775833,경기도 용인시 처인구,031-6193-5395,2025-12-03,4050000,경기도 용인시
백봉초등학교,경기도,용인시,경기도 용인시 처인구 백암면 죽양대로748번길 12,경기도 용인시 처인구 백암면 백봉리 192,37.1373152,127.3994118,경기도 용인시 처인구,031-6193-5395,2025-12-03,4050000,경기도 용인시
백암초등학교,경기도,용인시,경기도 용인시 처인구 백암면 백원로 501,경기도 용인시 처인구 백암면 근창리 105,37.1634034,127.3679565,경기도 용인시 처인구,031-6193-5395,2025-12-03,4050000,경기도 용인시
좌항초등학교,경기도,용인시,경기도 용인시 처인구 원삼면 원양로 603,경기도 용인시 처인구 원삼면 좌항리 126-4,37.2017421,127.3204415,경기도 용인시 처인구,031-6193-5395,2025-12-03,4050000,경기도 용인시
용천초등학교,경기도,용인시,경기도 용인시 처인구 이동읍 백옥대로 612,경기도 용인시 처인구 이동읍 천리 242-2,37.1916866,127.2080909,경기도 용인시 처인구,031-6193-5395,2025-12-03,4050000,경기도 용인시
송전초등학교,경기도,용인시,경기도 용인시 처인구 이동읍 경기동로687번길 14,경기도 용인시 처인구 이동읍 송전리 705-2,37.1408411,127.1976622,경기도 용인시 처인구,031-6193-5395,2025-12-03,4050000,경기도 용인시
남촌초등학교,경기도,용인시,경기도 용인시 처인구 남사읍 천덕산로 330,경기도 용인시 처인구 남사읍 진목리 141-5,37.1016581,127.138326,경기도 용인시 처인구,031-6193-5395,2025-12-03,4050000,경기도 용인시
능원초등학교,경기도,용인시,경기도 용인시 처인구 모현읍 충렬로8번길 29,경기도 용인시 처인구 모현읍 능원리 57,37.3424285,127.1746462,경기도 용인시 처인구,031-6193-5395,2025-12-03,4050000,경기도 용인시
마북초등학교(병설),경기도,용인시,경기도 용인시 기흥구 연원로 31,경기도 용인시 기흥구 마북동 550-13,37.3025456,127.1102238,경기도 용인시 기흥구,031-6193-6352,2025-12-03,4050000,경기도 용인시
왕산초등학교,경기도,용인시,경기도 용인시 처인구 모현읍 백옥대로2366번길 7-8,경기도 용인시 처인구 모현읍 왕산리 808-2,37.3352231,127.2504095,경기도 용인시 처인구,031-6193-5395,2025-12-03,4050000,경기도 용인시
모현초등학교,경기도,용인시,경기도 용인시 처인구 모현읍 문현로 179,경기도 용인시 처인구 모현읍 매산리 224-1,37.3434936,127.2282889,경기도 용인시 처인구,031-6193-5395,2025-12-03,4050000,경기도 용인시
포곡초등학교,경기도,용인시,경기도 용인시 처인구 포곡읍 부곡로 24,경기도 용인시 처인구 포곡읍 전대리 167-1,37.2823536,127.2191699,경기도 용인시 처인구,031-6193-5395,2025-12-03,4050000,경기도 용인시
동부초등학교,경상북도,영주시,경상북도 영주시 남간로25번길 46,경상북도 영주시 휴천동 714,36.8212342257,128.6313969965,경상북도 영주시청,054-639-6844,2025-07-31,5090000,경상북도 영주시
풍기초등학교,경상북도,영주시,경상북도 영주시 풍기읍 기주로 110,경상북도 영주시 풍기읍 성내리 22-1,36.8713772804,128.5252185749,경상북도 영주시청,054-639-6844,2025-07-31,5090000,경상북도 영주시
가흥초등학교 정문,경상북도,영주시,경상북도 영주시 대동로70번길 8-9,경상북도 영주시 가흥동 1857,36.81376039,128.6093889,경상북도 영주시청,054-639-6844,2025-07-31,5090000,경상북도 영주시
남산초등학교 정문,경상북도,영주시,경상북도 영주시 구성로 257,경상북도 영주시 휴천동 680,36.81554925,128.6267736,경상북도 영주시청,054-639-6844,2025-07-31,5090000,경상북도 영주시
서부초등학교 정문,경상북도,영주시,경상북도 영주시 신재로 12,경상북도 영주시 가흥동 507-6,36.83203058,128.6122151,경상북도 영주시청,054-639-6844,2025-07-31,5090000,경상북도 영주시
남부초등학교 정문,경상북도,영주시,경상북도 영주시 대학로71번길 19,경상북도 영주시 휴천동 642-180,36.80785633,128.6176691,경상북도 영주시청,054-639-6844,2025-07-31,5090000,경상북도 영주시
영주초등학교 정문,경상북도,영주시,경상북도 영주시 광복로 55,경상북도 영주시 영주동 26,36.82877622,128.6253863,경상북도 영주시청,054-639-6844,2025-07-31,5090000,경상북도 영주시
묵현초교(서울탁주),서울특별시,중랑구,서울특별시 중랑구 동일로157길 53,서울특별시 중랑구 묵동 243-134,37.6094577768,127.0746342311,서울특별시 중랑구청,,2025-08-22,3060000,서울특별시 중랑구
묵현초교 정문 반대쪽,서울특별시,중랑구,서울특별시 중랑구 중랑천로 286,서울특별시 중랑구 묵동 385,37.6106954689,127.0734913,서울특별시 중랑구청,,2025-08-22,3060000,서울특별시 중랑구
묵현초교 정문,서울특별시,중랑구,서울특별시 중랑구 동일로157길 75,서울특별시 중랑구 묵동 242-55,37.609080405,127.0736904436,서울특별시 중랑구청,,2025-08-22,3060000,서울특별시 중랑구
면일초교 정문,서울특별시,중랑구,서울특별시 중랑구 용마산로100길 13,서울특별시 중랑구 망우동 440,37.5920415995,127.0997947123,서울특별시 중랑구청,,2025-08-22,3060000,서울특별시 중랑구
면목초교 정문,서울특별시,중랑구,서울특별시 중랑구 면목로 434,서울특별시 중랑구 면목동 221,37.59064554,127.0872878229,서울특별시 중랑구청,,2025-08-22,3060000,서울특별시 중랑구
중흥초교 정문,서울특별시,중랑구,서울특별시 중랑구 봉화산로 82,서울특별시 중랑구 중화동 119,37.60166956,127.0841427,서울특별시 중랑구청,,2025-08-22,3060000,서울특별시 중랑구
중화초교 북서쪽,서울특별시,중랑구,서울특별시 중랑구 신내로7가길 22,서울특별시 중랑구 신내동 531,37.60291743,127.0940709,서울특별시 중랑구청,,2025-08-22,3060000,서울특별시 중랑구
중화초교 남서쪽(분수대),서울특별시,중랑구,서울특별시 중랑구 신내로7가길 22,서울특별시 중랑구 신내동 531,37.60291743,127.0940709,서울특별시 중랑구청,,2025-08-22,3060000,서울특별시 중랑구
중랑초교 후문(봉우재로),서울특별시,중랑구,서울특별시 중랑구 봉우재로6길 26,서울특별시 중랑구 면목동 192-1,37.58966346,127.0755028,서울특별시 중랑구청,,2025-08-22,3060000,서울특별시 중랑구
원묵초교 정문,서울특별시,중랑구,서울특별시 중랑구 숙선옹주로 109,서울특별시 중랑구 묵동 11,37.6177468,127.0868116,서울특별시 중랑구청,,2025-08-22,3060000,서울특별시 중랑구
신현초교 북서쪽,서울특별시,중랑구,서울특별시 중랑구 봉화산로 188,서울특별시 중랑구 신내동 663,37.60582354,127.0935147,서울특별시 중랑구청,,2025-08-22,3060000,서울특별시 중랑구
신내초교 남서쪽,서울특별시,중랑구,서울특별시 중랑구 용마산로125나길 22,서울특별시 중랑구 신내동 444,37.60493699,127.1001283,서울특별시 중랑구청,,2025-08-22,3060000,서울특별시 중랑구
신내초교 남동쪽,서울특별시,중랑구,서울특별시 중랑구 용마산로125나길 22,서울특별시 중랑구 신내동 444,37.60493699,127.1001283,서울특별시 중랑구청,,2025-08-22,3060000,서울특별시 중랑구
봉화초교 정문 반대쪽,서울특별시,중랑구,서울특별시 중랑구 신내로19길 42,서울특별시 중랑구 신내동 650,37.61410311,127.0910358,서울특별시 중랑구청,,2025-08-22,3060000,서울특별시 중랑구
망우초교 남서측 교문,서울특별시,중랑구,서울특별시 중랑구 망우로72길 49,서울특별시 중랑구 망우동 153-1,37.59873895,127.103838,서울특별시 중랑구청,,2025-08-22,3060000,서울특별시 중랑구
묵동초교(중랑중앞),서울특별시,중랑구,서울특별시 중랑구 동일로138길 27,서울특별시 중랑구 중화동 277-1,37.6033558,127.0808264,서울특별시 중랑구청,,2025-08-22,3060000,서울특별시 중랑구
동원초교 정문,서울특별시,중랑구,서울특별시 중랑구 송림길 114,서울특별시 중랑구 망우동 216,37.60457824,127.1044913,서울특별시 중랑구청,,2025-08-22,3060000,서울특별시 중랑구
중화초교 서쪽 삼거리,서울특별시,중랑구,서울특별시 중랑구 신내로7가길 22,서울특별시 중랑구 신내동 531,37.60291743,127.0940709,서울특별시 중랑구청,,2025-08-22,3060000,서울특별시 중랑구
중랑초교 남동쪽 2,서울특별시,중랑구,서울특별시 중랑구 봉우재로6길 26,서울특별시 중랑구 면목동 192-1,37.58966346,127.0755028,서울특별시 중랑구청,,2025-08-22,3060000,서울특별시 중랑구
중랑초교 남동쪽 1,서울특별시,중랑구,서울특별시 중랑구 봉우재로6길 26,서울특별시 중랑구 면목동 192-1,37.58966346,127.0755028,서울특별시 중랑구청,,2025-08-22,3060000,서울특별시 중랑구
중곡초교 북동쪽,서울특별시,중랑구,서울특별시 중랑구 면목로23길 20,서울특별시 중랑구 면목동 380,37.57489404,127.083439,서울특별시 중랑구청,,2025-08-22,3060000,서울특별시 중랑구
원묵중교 북서쪽,서울특별시,중랑구,서울특별시 중랑구 신내로23길 57,서울특별시 중랑구 묵동 12,37.61779102,127.0843757,서울특별시 중랑구청,,2025-08-22,3060000,서울특별시 중랑구
신현초교 북동쪽,서울특별시,중랑구,서울특별시 중랑구 봉화산로 188,서울특별시 중랑구 신내동 663,37.60582354,127.0935147,서울특별시 중랑구청,,2025-08-22,3060000,서울특별시 중랑구
신묵초교 남서쪽,서울특별시,중랑구,서울특별시 중랑구 동일로149길 46,서울특별시 중랑구 묵동 246-12,37.60652462,127.0758381,서울특별시 중랑구청,,2025-08-22,3060000,서울특별시 중랑구
신내초교 북서쪽,서울특별시,중랑구,서울특별시 중랑구 용마산로129가길 41,서울특별시 중랑구 신내동 801,37.60601901,127.1002285,서울특별시 중랑구청,,2025-08-22,3060000,서울특별시 중랑구
면일초교 남동쪽,서울특별시,중랑구,서울특별시 중랑구 용마산로100길 13,서울특별시 중랑구 망우동 440,37.59204051,127.0997964,서울특별시 중랑구청,,2025-08-22,3060000,서울특별시 중랑구
면일초교 북동쪽,서울특별시,중랑구,서울특별시 중랑구 용마산로100길 13,서울특별시 중랑구 망우동 440,37.59204051,127.0997964,서울특별시 중랑구청,,2025-08-22,3060000,서울특별시 중랑구
면일초교 남쪽,서울특별시,중랑구,서울특별시 중랑구 용마산로100길 13,서울특별시 중랑구 망우동 440,37.59204051,127.0997964,서울특별시 중랑구청,,2025-08-22,3060000,서울특별시 중랑구
면동초교 남서쪽,서울특별시,중랑구,서울특별시 중랑구 면목로57길 32,서울특별시 중랑구 면목동 551,37.58535259,127.0865955,서울특별시 중랑구청,,2025-08-22,3060000,서울특별시 중랑구
면동초교 남동쪽,서울특별시,중랑구,서울특별시 중랑구 면목로57길 32,서울특별시 중랑구 면목동 551,37.58535259,127.0865955,서울특별시 중랑구청,,2025-08-22,3060000,서울특별시 중랑구
면동초교 후문앞,서울특별시,중랑구,서울특별시 중랑구 면목로57길 32,서울특별시 중랑구 면목동 551,37.58535259,127.0865955,서울특별시 중랑구청,,2025-08-22,3060000,서울특별시 중랑구
동원초교 남쪽(이화미디어고),서울특별시,중랑구,서울특별시 중랑구 송림길 114,서울특별시 중랑구 망우동 216,37.60457824,127.1044913,서울특별시 중랑구청,,2025-08-22,3060000,서울특별시 중랑구
동원초교 북동쪽,서울특별시,중랑구,서울특별시 중랑구 송림길 114,서울특별시 중랑구 망우동 216,37.60457824,127.1044913,서울특별시 중랑구청,,2025-08-22,3060000,서울특별시 중랑구
금성초교 동쪽 사거리,서울특별시,중랑구,서울특별시 중랑구 신내로21길 55,서울특별시 중랑구 신내동 651,37.61531042,127.0898544,서울특별시 중랑구청,,2025-08-22,3060000,서울특별시 중랑구
신내초교 후문쪽,서울특별시,중랑구,서울특별시 중랑구 용마산로129가길 41,서울특별시 중랑구 신내동 801,37.60601901,127.1002285,서울특별시 중랑구청,,2025-08-22,3060000,서울특별시 중랑구
삼거리 인근,서울특별시,중랑구,서울특별시 중랑구 봉화산로 250,서울특별시 중랑구 신내동 385-7,37.60815704,127.1005652,서울특별시 중랑구청,,2025-08-22,3060000,서울특별시 중랑구
상봉초교 정문쪽,서울특별시,중랑구,서울특별시 중랑구 동일로126가길 11,서울특별시 중랑구 상봉동 312-1,37.59797674,127.0831687,서울특별시 중랑구청,,2025-08-22,3060000,서울특별시 중랑구
봉화초교 정문쪽,서울특별시,중랑구,서울특별시 중랑구 신내로15길 110,서울특별시 중랑구 신내동 655,37.61357307,127.0924127,서울특별시 중랑구청,,2025-08-22,3060000,서울특별시 중랑구
신현초교 남서쪽,서울특별시,중랑구,서울특별시 중랑구 봉화산로 188,서울특별시 중랑구 신내동 663,37.60582354,127.0935147,서울특별시 중랑구청,,2025-08-22,3060000,서울특별시 중랑구
원묵초교 정문 반대쪽,서울특별시,중랑구,서울특별시 중랑구 숙선옹주로 109,서울특별시 중랑구 묵동 11,37.6177468,127.0868116,서울특별시 중랑구청,,2025-08-22,3060000,서울특별시 중랑구
중랑중교 정문쪽,서울특별시,중랑구,서울특별시 중랑구 동일로138길 27,서울특별시 중랑구 중화동 277-1,37.6033558,127.0808264,서울특별시 중랑구청,,2025-08-22,3060000,서울특별시 중랑구
중랑초교 북동쪽,서울특별시,중랑구,서울특별시 중랑구 봉우재로6길 26,서울특별시 중랑구 면목동 192-1,37.58966346,127.0755028,서울특별시 중랑구청,,2025-08-22,3060000,서울특별시 중랑구
LG유치원,부산광역시,부산진구,부산광역시 부산진구 백양대로300번길 30,부산광역시 부산진구 개금동 455,35.15589387,129.0183555,부산광역시 부산진구청,051-605-4554,2025-06-13,3290000,부산광역시 부산진구
연지초등학교,부산광역시,부산진구,부산광역시 부산진구 연지로 35,부산광역시 부산진구 연지동 232-2,35.17204567,129.0533199,부산광역시 부산진구청,051-605-4554,2025-06-13,3290000,부산광역시 부산진구
부암초등학교,부산광역시,부산진구,부산광역시 부산진구 신천대로263번길 31,부산광역시 부산진구 부암동 278-97,35.16461426,129.049627,부산광역시 부산진구청,051-605-4554,2025-06-13,3290000,부산광역시 부산진구
주례초등학교,부산광역시,부산진구,부산광역시 부산진구 진사로61번길 28-7,부산광역시 부산진구 개금동 630-5,35.14579457,129.0194516,부산광역시 부산진구청,051-605-4554,2025-06-13,3290000,부산광역시 부산진구
전포초등학교,부산광역시,부산진구,부산광역시 부산진구 전포대로255번길 38,부산광역시 부산진구 전포동 656-1,35.15945713,129.0633316,부산광역시 부산진구청,051-605-4554,2025-06-13,3290000,부산광역시 부산진구
연학초등학교,부산광역시,부산진구,부산광역시 부산진구 초읍천로43번길 10,부산광역시 부산진구 초읍동 117-1,35.17660676,129.0462808,부산광역시 부산진구청,051-605-4554,2025-06-13,3290000,부산광역시 부산진구
양성초등학교,부산광역시,부산진구,부산광역시 부산진구 양성로 34,부산광역시 부산진구 양정동 445-386,35.17035507,129.0660942,부산광역시 부산진구청,051-605-4554,2025-06-13,3290000,부산광역시 부산진구
성지초등학교,부산광역시,부산진구,부산광역시 부산진구 시민공원로 50,부산광역시 부산진구 범전동 227-1,35.16369011,129.055030,부산광역시 부산진구청,051-605-4554,2025-06-13,3290000,부산광역시 부산진구
성전초등학교,부산광역시,부산진구,부산광역시 부산진구 전포대로298번길 15,부산광역시 부산진구 전포동 164-8,35.16398833,129.0663612,부산광역시 부산진구청,051-605-4554,2025-06-13,3290000,부산광역시 부산진구
선암초등학교,부산광역시,부산진구,부산광역시 부산진구 엄광로412번길 3,부산광역시 부산진구 범천동 산 41-3,35.15024739,129.0491569,부산광역시 부산진구청,051-605-4554,2025-06-13,3290000,부산광역시 부산진구
당평초등학교,부산광역시,부산진구,부산광역시 부산진구 백양대로136번길 26,부산광역시 부산진구 당감동 517,35.16143615,129.0351718,부산광역시 부산진구청,051-605-4554,2025-06-13,3290000,부산광역시 부산진구
개화초등학교,부산광역시,부산진구,부산광역시 부산진구 개금본동로 43,부산광역시 부산진구 개금동 383,35.15864479,129.0225143,부산광역시 부산진구청,051-605-4554,2025-06-13,3290000,부산광역시 부산진구
개림초등학교,부산광역시,부산진구,부산광역시 부산진구 백양대로320번길 40,부산광역시 부산진구 개금동 446-14,35.1563675,129.0161716,부산광역시 부산진구청,051-605-4554,2025-06-13,3290000,부산광역시 부산진구
가평초등학교,부산광역시,부산진구,부산광역시 부산진구 복지로47번길 73,부산광역시 부산진구 가야동 659-3,35.14941482,129.0246238,부산광역시 부산진구청,051-605-4554,2025-06-13,3290000,부산광역시 부산진구
가남초등학교,부산광역시,부산진구,부산광역시 부산진구 엄광로 325,부산광역시 부산진구 가야동 12,35.15451624,129.0440621,부산광역시 부산진구청,051-605-4554,2025-06-13,3290000,부산광역시 부산진구
성서초등학교,부산광역시,부산진구,부산광역시 부산진구 중앙번영로 25,부산광역시 부산진구 범천동 851-6,35.14505161,129.0623365,부산광역시 부산진구청,051-605-4554,2025-06-13,3290000,부산광역시 부산진구
개원초등학교,부산광역시,부산진구,부산광역시 부산진구 백양관문로77번길 17,부산광역시 부산진구 개금동 1-18,35.16456635,129.0284098,부산광역시 부산진구청,051-605-4554,2025-06-13,3290000,부산광역시 부산진구
동양초등학교,부산광역시,부산진구,부산광역시 부산진구 백양산로 77,부산광역시 부산진구 부암동 725,35.17579328,129.0305542,부산광역시 부산진구청,051-605-4554,2025-06-13,3290000,부산광역시 부산진구
개포초등학교,부산광역시,부산진구,부산광역시 부산진구 백양대로208번길 9,부산광역시 부산진구 개금동 58,35.15883224,129.0265086,부산광역시 부산진구청,051-605-4554,2025-06-13,3290000,부산광역시 부산진구
동성초등학교,부산광역시,부산진구,부산광역시 부산진구 동성로 2,부산광역시 부산진구 전포동 358-45,35.15062218,129.0685381,부산광역시 부산진구청,051-605-4554,2025-06-13,3290000,부산광역시 부산진구
테크노초등학교 건너,대구광역시,달성군,대구광역시 달성군 유가읍 테크노순환로 423,대구광역시 달성군 유가읍 쌍계리 633,35.6983037386,128.4685284739,대구광역시 달성군,053-668-3816,2025-06-23,3480000,대구광역시 달성군
테크노초등학교 앞,대구광역시,달성군,대구광역시 달성군 유가읍 현풍로 245,대구광역시 달성군 유가읍 쌍계리 628,35.7000686112,128.4634402234,대구광역시 달성군,053-668-3816,2025-06-23,3480000,대구광역시 달성군
구지중학교 앞2,대구광역시,달성군,대구광역시 달성군 구지면 국가산단대로66길 22,대구광역시 달성군 구지면 창리 1441,35.6605573169,128.4196708464,대구광역시 달성군,053-668-3816,2025-06-23,3480000,대구광역시 달성군
구지중학교 앞1,대구광역시,달성군,대구광역시 달성군 구지면 국가산단대로66길 22,대구광역시 달성군 구지면 창리 1441,35.6605573169,128.4196708464,대구광역시 달성군,053-668-3816,2025-06-23,3480000,대구광역시 달성군
현풍초등학교 뒤쪽,대구광역시,달성군,대구광역시 달성군 현풍읍 비슬로134길 167-6,대구광역시 달성군 현풍읍 상리 539-1,35.6981097859,128.4484672502,대구광역시 달성군,053-668-3816,2025-06-23,3480000,대구광역시 달성군
금계초등학교 앞,대구광역시,달성군,대구광역시 달성군 옥포읍 금계길 55,대구광역시 달성군 옥포읍 교항리 1503,35.7888380621,128.443791,대구광역시 달성군,053-668-3816,2025-06-23,3480000,대구광역시 달성군
화남초등학교 앞2,대구광역시,달성군,대구광역시 달성군 화원읍 명천로 181,대구광역시 달성군 화원읍 명곡리 113,35.8000200341,128.4980090241,대구광역시 달성군,053-668-3816,2025-06-23,3480000,대구광역시 달성군
화남초등학교 앞1,대구광역시,달성군,대구광역시 달성군 화원읍 명천로 181,대구광역시 달성군 화원읍 명곡리 113,35.8000200341,128.4980090241,대구광역시 달성군,053-668-3816,2025-06-23,3480000,대구광역시 달성군
화동초등학교 앞,대구광역시,달성군,대구광역시 달성군 화원읍 성암로 38,대구광역시 달성군 화원읍 본리리 104-1,35.7995458366,128.5096928814,대구광역시 달성군,053-668-3816,2025-06-23,3480000,대구광역시 달성군
매곡초등학교 앞,대구광역시,달성군,대구광역시 달성군 다사읍 대실역북로3길 6,대구광역시 달성군 다사읍 매곡리 1536,35.8622498283,128.4681199465,대구광역시 달성군,053-668-3816,2025-06-23,3480000,대구광역시 달성군
다사초등학교 건너,대구광역시,달성군,대구광역시 달성군 다사읍 다사역로 60,대구광역시 달성군 다사읍 매곡리 473,35.8687256809,128.4564374395,대구광역시 달성군,053-668-3816,2025-06-23,3480000,대구광역시 달성군
다사초등학교 앞,대구광역시,달성군,대구광역시 달성군 다사읍 다사로 86,대구광역시 달성군 다사읍 매곡리 457,35.8694287956,128.4584848226,대구광역시 달성군,053-668-3816,2025-06-23,3480000,대구광역시 달성군
서동초등학교 앞,대구광역시,달성군,대구광역시 달성군 다사읍 서재로7길 53,대구광역시 달성군 다사읍 서재리 928,35.871804,128.4888081844,대구광역시 달성군,053-668-3816,2025-06-23,3480000,대구광역시 달성군
서재초등학교 후문 건너,대구광역시,달성군,대구광역시 달성군 다사읍 서재로 100,대구광역시 달성군 다사읍 서재리 262,35.8719221753,128.498380056,대구광역시 달성군,053-668-3816,2025-06-23,3480000,대구광역시 달성군
유가중학교 앞,대구광역시,달성군,대구광역시 달성군 유가읍 테크노대로5길 20,대구광역시 달성군 유가읍 봉리 626,35.691151,128.4676564375,대구광역시 달성군,053-668-3816,2025-06-23,3480000,대구광역시 달성군
유가유치원 앞,대구광역시,달성군,대구광역시 달성군 유가읍 테크노대로5길 32,대구광역시 달성군 유가읍 봉리 623,35.6919893428,128.4672409407,대구광역시 달성군,053-668-3816,2025-06-23,3480000,대구광역시 달성군
유가초등학교 앞,대구광역시,달성군,대구광역시 달성군 유가읍 테크노대로5길 34,대구광역시 달성군 유가읍 봉리 623,35.6922344368,128.4677384583,대구광역시 달성군,053-668-3816,2025-06-23,3480000,대구광역시 달성군
도림초등학교 주차장 입구,대구광역시,달성군,대구광역시 달성군 다사읍 서재로26길 94,대구광역시 달성군 다사읍 서재리 32,35.878165,128.4997990746,대구광역시 달성군,053-668-3816,2025-06-23,3480000,대구광역시 달성군
하나로마트 홍동농협 앞,충청남도,홍성군,,충청남도 홍성군 홍동면 운월리 722-2,36.56082489,126.6868909,충청남도 홍성군청,041-630-1446,2025-02-07,4600000,충청남도 홍성군
갓골어린이집,충청남도,홍성군,,충청남도 홍성군 홍동면 운월리 368-24,36.55833186,126.6857345,충청남도 홍성군청,041-630-1446,2025-02-07,4600000,충청남도 홍성군
홍성여중 정문,충청남도,홍성군,,충청남도 홍성군 홍성읍 소향리 54-8,36.60736188,126.6623900453,충청남도 홍성군청,041-630-1446,2025-02-07,4600000,충청남도 홍성군
조양유치원,충청남도,홍성군,,충청남도 홍성군 홍성읍 소향리 53-9,36.60756127,126.6624463,충청남도 홍성군청,041-630-1446,2025-02-07,4600000,충청남도 홍성군
홍북초등학교,충청남도,홍성군,,충청남도 홍성군 홍북읍 신경리 1981,36.65197115,126.6830618,충청남도 홍성군청,041-630-1446,2025-02-07,4600000,충청남도 홍성군
한울초등학교,충청남도,홍성군,,충청남도 홍성군 홍북읍 신경리 1983,36.64536295,126.6781164,충청남도 홍성군청,041-630-1446,2025-02-07,4600000,충청남도 홍성군
내포초등학교,충청남도,홍성군,,충청남도 홍성군 홍북읍 신경리 1974,36.65035897,126.6706752,충청남도 홍성군청,041-630-1446,2025-02-07,4600000,충청남도 홍성군
구항초등학교,충청남도,홍성군,,충청남도 홍성군 구항면 오봉리 697-1,36.5854321,126.606663,충청남도 홍성군청,041-630-1446,2025-02-07,4600000,충청남도 홍성군
대정초등학교,충청남도,홍성군,,충청남도 홍성군 구항면 지정리 897,36.5486881,126.6382223,충청남도 홍성군청,041-630-1446,2025-02-07,4600000,충청남도 홍성군
신당초등학교,충청남도,홍성군,,충청남도 홍성군 서부면 남당리 836,36.54841799,126.4748492,충청남도 홍성군청,041-630-1446,2025-02-07,4600000,충청남도 홍성군
신당초등학교,충청남도,홍성군,,충청남도 홍성군 서부면 남당리 664-1,36.54737643,126.474279,충청남도 홍성군청,041-630-1446,2025-02-07,4600000,충청남도 홍성군
홍성서부초등학교 정문,충청남도,홍성군,,충청남도 홍성군 서부면 이호리 238-3,36.57882013,126.512716,충청남도 홍성군청,041-630-1446,2025-02-07,4600000,충청남도 홍성군
서부초등학교,충청남도,홍성군,,충청남도 홍성군 서부면 이호리 238-5,36.57870792,126.5125351,충청남도 홍성군청,041-630-1446,2025-02-07,4600000,충청남도 홍성군
결성초등학교,충청남도,홍성군,,충청남도 홍성군 결성면 읍내리 706-2,36.52513156,126.546205,충청남도 홍성군청,041-630-1446,2025-02-07,4600000,충청남도 홍성군
은하초등학교,충청남도,홍성군,,충청남도 홍성군 은하면 대천리 산147,36.52854367,126.5883691,충청남도 홍성군청,041-630-1446,2025-02-07,4600000,충청남도 홍성군
홍동초등학교,충청남도,홍성군,,충청남도 홍성군 홍동면 운월리 293-31,36.55740133,126.6900901,충청남도 홍성군청,041-630-1446,2025-02-07,4600000,충청남도 홍성군
금당슈퍼 앞,충청남도,홍성군,,충청남도 홍성군 홍동면 금당리 630-1,36.56821726,126.7230537,충청남도 홍성군청,041-630-1446,2025-02-07,4600000,충청남도 홍성군
금당초등학교,충청남도,홍성군,,충청남도 홍성군 홍동면 금당리 617-1,36.56778187,126.7233167,충청남도 홍성군청,041-630-1446,2025-02-07,4600000,충청남도 홍성군
배양초등학교,충청남도,홍성군,,충청남도 홍성군 금마면 죽림리 376-4,36.61291932,126.7082778,충청남도 홍성군청,041-630-1446,2025-02-07,4600000,충청남도 홍성군
금마초등학교,충청남도,홍성군,,충청남도 홍성군 금마면 부평리 438-1,36.61228296,126.7319818,충청남도 홍성군청,041-630-1446,2025-02-07,4600000,충청남도 홍성군
용봉초등학교,충청남도,홍성군,,충청남도 홍성군 홍북읍 상하리 564,36.62994044,126.6515292,충청남도 홍성군청,041-630-1446,2025-02-07,4600000,충청남도 홍성군
광천초등학교 정문,충청남도,홍성군,,충청남도 홍성군 광천읍 광천리 138-13,36.50559985,126.6288285,충청남도 홍성군청,041-630-1446,2025-02-07,4600000,충청남도 홍성군
광천초등학교,충청남도,홍성군,,충청남도 홍성군 광천읍 광천리 138-1,36.50541771,126.6289204,충청남도 홍성군청,041-630-1446,2025-02-07,4600000,충청남도 홍성군
무지개교회 앞,충청남도,홍성군,,충청남도 홍성군 홍성읍 오관리 946,36.59431906,126.6687088,충청남도 홍성군청,041-630-1446,2025-02-07,4600000,충청남도 홍성군
신천아파트 앞,충청남도,홍성군,,충청남도 홍성군 홍성읍 고암리 923,36.59522528,126.6690217,충청남도 홍성군청,041-630-1446,2025-02-07,4600000,충청남도 홍성군
신천아파트 앞,충청남도,홍성군,,충청남도 홍성군 홍성읍 고암리 652-3,36.59543928,126.6691596,충청남도 홍성군청,041-630-1446,2025-02-07,4600000,충청남도 홍성군
홍남삼거리,충청남도,홍성군,,충청남도 홍성군 홍성읍 오관리 551-12,36.59472913,126.6687852,충청남도 홍성군청,041-630-1446,2025-02-07,4600000,충청남도 홍성군
홍남초등학교,충청남도,홍성군,,충청남도 홍성군 홍성읍 남장리 106-43,36.59341117,126.6686821,충청남도 홍성군청,041-630-1446,2025-02-07,4600000,충청남도 홍성군
홍주초등학교 앞,충청남도,홍성군,,충청남도 홍성군 홍성읍 오관리 411-2,36.59972856,126.6627011,충청남도 홍성군청,041-630-1446,2025-02-07,4600000,충청남도 홍성군
홍성초등학교 후문,충청남도,홍성군,,충청남도 홍성군 홍성읍 오관리 629-1,36.59872969,126.6583287,충청남도 홍성군청,041-630-1446,2025-02-07,4600000,충청남도 홍성군
봉화분식 앞,충청남도,홍성군,,충청남도 홍성군 홍성읍 오관리 638-1,36.59883475,126.6559609,충청남도 홍성군청,041-630-1446,2025-02-07,4600000,충청남도 홍성군
홍성군장애인종합복지관 주차장 앞,충청남도,홍성군,,충청남도 홍성군 홍성읍 오관리 645-7,36.59810484,126.655955,충청남도 홍성군청,041-630-1446,2025-02-07,4600000,충청남도 홍성군
홍성초등학교,충청남도,홍성군,,충청남도 홍성군 홍성읍 옥암리 58-6,36.59813149,126.6573588,충청남도 홍성군청,041-630-1446,2025-02-07,4600000,충청남도 홍성군
목천초등학교,충청남도,천안시,충청남도 천안시 동남구 목천읍 서리2길 31,,36.787912,127.235723,충청남도 천안시,041-521-5893,2025-01-02,4490000,충청남도 천안시
신안초등학교,충청남도,천안시,충청남도 천안시 동남구 원성25길 21,,36.814189,127.162674,충청남도 천안시,041-521-5893,2025-01-02,4490000,충청남도 천안시
구성초등학교,충청남도,천안시,충청남도 천안시 동남구 청수로 126,,36.792962,127.158592,충청남도 천안시,041-521-5893,2025-01-02,4490000,충청남도 천안시
청룡초등학교,충청남도,천안시,충청남도 천안시 동남구 풍세로 801-28,,36.781359,127.139495,충청남도 천안시,041-521-5893,2025-01-02,4490000,충청남도 천안시
행정초등학교,충청남도,천안시,충청남도 천안시 동남구 광덕면 광덕로 534,,36.686841,127.156613,충청남도 천안시,041-521-5893,2025-01-02,4490000,충청남도 천안시
청당초등학교,충청남도,천안시,충청남도 천안시 동남구 청당2길 94,,36.780045,127.151524,충청남도 천안시,041-521-5893,2025-01-02,4490000,충청남도 천안시
대평초등학교,부산광역시,영도구,부산광역시 영도구 절영로 82,부산광역시 영도구 남항동2가 65-9,35.08753561,129.0388823,부산광역시 영도구청 교통과,051-419-4558,2025-12-04,3280000,부산광역시 영도구
봉학초등학교,부산광역시,영도구,부산광역시 영도구 태종로 242,부산광역시 영도구 청학동 389-53,35.09553513,129.0550147,부산광역시 영도구청 교통과,051-419-4558,2025-12-04,3280000,부산광역시 영도구
동삼초등학교,부산광역시,영도구,부산광역시 영도구 태종로 610,부산광역시 영도구 동삼동 258,35.0798243,129.0734665,부산광역시 영도구청 교통과,051-419-4558,2025-12-04,3280000,부산광역시 영도구
절영초등학교,부산광역시,영도구,부산광역시 영도구 함지로 33,부산광역시 영도구 동삼동 1124-7,35.07190934,129.0619101,부산광역시 영도구청 교통과,051-419-4558,2025-12-04,3280000,부산광역시 영도구
봉삼초등학교,부산광역시,영도구,부산광역시 영도구 함지로79번길 39,부산광역시 영도구 동삼동 510-8,35.07479719,129.0636181,부산광역시 영도구청 교통과,051-419-4558,2025-12-04,3280000,부산광역시 영도구
청동초등학교,부산광역시,영도구,부산광역시 영도구 태종로422번길 51,부산광역시 영도구 청학동 71-1,35.08811888,129.0673548,부산광역시 영도구청 교통과,051-419-4558,2025-12-04,3280000,부산광역시 영도구
중리초등학교,부산광역시,영도구,부산광역시 영도구 와치로 286,부산광역시 영도구 동삼동 454-34,35.07420189,129.0701926,부산광역시 영도구청 교통과,051-419-4558,2025-12-04,3280000,부산광역시 영도구
대교초등학교,부산광역시,영도구,부산광역시 영도구 봉래나루로246번길 19,부산광역시 영도구 봉래동4가 18,35.09469424,129.0457513,부산광역시 영도구청 교통과,051-419-4558,2025-12-04,3280000,부산광역시 영도구
남항초등학교,부산광역시,영도구,부산광역시 영도구 남항새싹길 55,부산광역시 영도구 영선동4가 247,35.08366964,129.043117,부산광역시 영도구청 교통과,051-419-4558,2025-12-04,3280000,부산광역시 영도구
신부초등학교,충청남도,천안시,충청남도 천안시 동남구 터미널5길 30,,36.8227300576,127.160164,충청남도 천안시,041-521-5893,2025-01-02,4490000,충청남도 천안시
신용초등학교,충청남도,천안시,충청남도 천안시 동남구 새말1길 29,,36.790733,127.131719,충청남도 천안시,041-521-5893,2025-01-02,4490000,충청남도 천안시
삼거리초등학교,충청남도,천안시,충청남도 천안시 동남구 충절로 340,,36.789745,127.1633902000,충청남도 천안시,041-521-5893,2025-01-02,4490000,충청남도 천안시
새샘초등학교,충청남도,천안시,충청남도 천안시 동남구 통정9로 58,,36.77099584,127.1309268,충청남도 천안시,041-521-5893,2025-01-02,4490000,충청남도 천안시
봉서초등학교,충청남도,천안시,충청남도 천안시 동남구 봉서10길 12(봉명동),,36.812553,127.131094,충청남도 천안시,041-521-5893,2025-01-02,4490000,충청남도 천안시
천안초등학교,충청남도,천안시,충청남도 천안시 동남구 중앙로 169,,36.814106,127.152544,충청남도 천안시,041-521-5893,2025-01-02,4490000,충청남도 천안시
부대초등학교,충청남도,천안시,충청남도 천안시 서북구 공대길 37,,36.848948,127.151879,충청남도 천안시,041-521-5893,2025-01-02,4490000,충청남도 천안시
신대초등학교,충청남도,천안시,충청남도 천안시 서북구 성정두정로 130,,36.837049,127.142681,충청남도 천안시,041-521-5893,2025-01-02,4490000,충청남도 천안시
월봉초등학교,충청남도,천안시,충청남도 천안시 서북구 월봉4로 120-8,,36.796519,127.115306,충청남도 천안시,041-521-5893,2025-01-02,4490000,충청남도 천안시
부성초등학교,충청남도,천안시,충청남도 천안시 서북구 부성1길 16,,36.835242,127.136662,충청남도 천안시,041-521-5893,2025-01-02,4490000,충청남도 천안시
아름초등학교,충청남도,천안시,충청남도 천안시 서북구 불당27길 7,,36.813118,127.102377,충청남도 천안시,041-521-5893,2025-01-02,4490000,충청남도 천안시
서당초등학교,충청남도,천안시,충청남도 천안시 서북구 불당11로 63,,36.803939,127.113505,충청남도 천안시,041-521-5893,2025-01-02,4490000,충청남도 천안시
백석초등학교,충청남도,천안시,충청남도 천안시 서북구 백석3로 98,,36.820321,127.122521,충청남도 천안시,041-521-5893,2025-01-02,4490000,충청남도 천안시
불당초등학교,충청남도,천안시,충청남도 천안시 서북구 불당동 불당4로 39-21,,36.806254,127.108957,충청남도 천안시,041-521-5893,2025-01-02,4490000,충청남도 천안시
오성초등학교,충청남도,천안시,충청남도 천안시 서북구 오성5길 24,,36.830811,127.130622,충청남도 천안시,041-521-5893,2025-01-02,4490000,충청남도 천안시
성정초등학교,충청남도,천안시,충청남도 천안시 서북구 성정7길 3(성정동),,36.815309,127.140212,충청남도 천안시,041-521-5893,2025-01-02,4490000,충청남도 천안시
성거초등학교,충청남도,천안시,충청남도 천안시 서북구 성거읍 소댕이3길 606-21,,36.871773,127.199687,충청남도 천안시,041-521-5893,2025-01-02,4490000,충청남도 천안시
소망초등학교,충청남도,천안시,충청남도 천안시 서북구 성거읍 역전말3길 102,,36.875907,127.162396,충청남도 천안시,041-521-5893,2025-01-02,4490000,충청남도 천안시
쌍정초등학교,충청남도,천안시,충청남도 천안시 서북구 충무로 5-44,,36.787218,127.1149315,충청남도 천안시,041-521-5893,2025-01-02,4490000,충청남도 천안시
쌍용초등학교,충청남도,천안시,충청남도 천안시 서북구 쌍용6길 9,,36.801088,127.122459,충청남도 천안시,041-521-5893,2025-01-02,4490000,충청남도 천안시
서초등학교,충청남도,천안시,충청남도 천안시 서북구 서부16길 27,,36.823185,127.139644,충청남도 천안시,041-521-5893,2025-01-02,4490000,충청남도 천안시
환서초등학교,충청남도,천안시,충청남도 천안시 서북구 한들2로 34-41,,36.828903,127.122533,충청남도 천안시,041-521-5893,2025-01-02,4490000,충청남도 천안시
남포초등학교,충청남도,보령시,충청남도 보령시 남포면 읍성향교길 21,충청남도 보령시 남포면 읍내리 360-1,36.30505159,126.6095589,충청남도 보령시,041-930-3981,2025-12-12,4510000,충청남도 보령시
용마초등학교,경기도,용인시,경기도 용인시 처인구 금학로 471-1,경기도 용인시 처인구 마평동 675-4,37.2368864,127.2148682,경기도 용인시 처인구,031-6193-5395,2025-12-03,4050000,경기도 용인시
운학초등학교,경기도,용인시,경기도 용인시 처인구 동부로465번길 7,경기도 용인시 처인구 운학동 220-1,37.2028749,127.2460208,경기도 용인시 처인구,031-6193-5395,2025-12-03,4050000,경기도 용인시
서룡초등학교,경기도,용인시,경기도 용인시 처인구 중부대로1281번길 11,경기도 용인시 처인구 역북동 416,37.2375842,127.1875109,경기도 용인시 처인구,031-6193-5395,2025-12-03,4050000,경기도 용인시
용인초등학교,경기도,용인시,경기도 용인시 처인구 금학로367번길 14,경기도 용인시 처인구 김량장동 228-1,37.2384989,127.204419,경기도 용인시 처인구,031-6193-5395,2025-12-03,4050000,경기도 용인시
예원유치원,인천광역시,동구,,인천광역시 동구 송현동 56-104,37.480482,126.6375838,인천광역시 동구청,032-770-6595,2025-12-10,3500000,인천광역시 동구
서흥초교,인천광역시,동구,,인천광역시 동구 송림동 34-1,37.478654,126.6445666,인천광역시 동구청,032-770-6595,2025-12-10,3500000,인천광역시 동구
송림초교,인천광역시,동구,,인천광역시 동구 송림동 234-3,37.473972,126.636454,인천광역시 동구청,032-770-6595,2025-12-10,3500000,인천광역시 동구
송림휴먼시아어린이집,인천광역시,동구,,인천광역시 동구 송림동 341-5,37.48014273,126.652128,인천광역시 동구청,032-770-6595,2025-12-10,3500000,인천광역시 동구
예원유치원,인천광역시,동구,,인천광역시 동구 송현동 56-2,37.47972136,126.6363384,인천광역시 동구청,032-770-6595,2025-12-10,3500000,인천광역시 동구
동명초교,인천광역시,동구,,인천광역시 동구 송림동 57-17,37.4750064,126.642523,인천광역시 동구청,032-770-6595,2025-12-10,3500000,인천광역시 동구
송현초교,인천광역시,동구,,인천광역시 동구 화수동 276-2,37.481087,126.6329298,인천광역시 동구청,032-770-6595,2025-12-10,3500000,인천광역시 동구
송현초교,인천광역시,동구,,인천광역시 동구 송현동 118,37.48126134,126.6360254,인천광역시 동구청,032-770-6595,2025-12-10,3500000,인천광역시 동구
서림초교,인천광역시,동구,,인천광역시 동구 송림동 73,37.47466499,126.6471902,인천광역시 동구청,032-770-6595,2025-12-10,3500000,인천광역시 동구
만석초교,인천광역시,동구,,인천광역시 동구 만석동 21-112,37.4840708,126.6274725,인천광역시 동구청,032-770-6595,2025-12-10,3500000,인천광역시 동구
익산 한벌초 옐로카펫,전북특별자치도,익산시,,전북특별자치도 익산시 부송동 242-42,35.9582915451,126.9947875284,전북특별자치도 익산시청,063-859-5566,2025-12-09,4681000,전북특별자치도 익산시
익산초 서측 옐로카펫,전북특별자치도,익산시,,전북특별자치도 익산시 어양동 607,35.9543566581,126.9788430386,전북특별자치도 익산시청,063-859-5566,2025-12-09,4681000,전북특별자치도 익산시
이리영등초 옐로카펫,전북특별자치도,익산시,,전북특별자치도 익산시 영등동 795,35.9529048065,126.9705385782,전북특별자치도 익산시청,063-859-5566,2025-12-09,4681000,전북특별자치도 익산시
이리백제초 남동측 옐로카펫,전북특별자치도,익산시,,전북특별자치도 익산시 영등동 867,35.9603168893,126.9712292262,전북특별자치도 익산시청,063-859-5566,2025-12-09,4681000,전북특별자치도 익산시
이리남창초 옐로카펫,전북특별자치도,익산시,,전북특별자치도 익산시 남중동 237-5,35.9457586969,126.9536142316,전북특별자치도 익산시청,063-859-5566,2025-12-09,4681000,전북특별자치도 익산시
이리부송초 옐로카펫,전북특별자치도,익산시,,전북특별자치도 익산시 부송동 242-42,35.9582915451,126.9947875284,전북특별자치도 익산시청,063-859-5566,2025-12-09,4681000,전북특별자치도 익산시
